Initializing..
default to 4800..
Setting GPS config...
Setting GPS to EM_406A
$PSRF100,1,4800,8,1,0*0E
Start GPS Rx - serial1 at 4800
Start nmea Rx - serial2 at 9600
Start nmea Rx - serial3 at 9600
Start SPI uarts..
CS_PIN set to OUTPUT
CS_PIN OUTPUT = HIGH
Start nmea Rx - serial4 at 9600
MultiSerial::begin
SPI started
SPI UART reset
SPI init complete
Start nmea Tx..
Start nmea Tx - on pins 46 Tx, 48 Rx at 0
Init autopilot..
MultiSerial::begin
SPI started
SPI init complete
Init autopilot..start PID..
Init autopilot..set limits..
Init autopilot complete
Start wind..
Start timer..
Setup complete..
$GPRMC,190315.000,A,3503.8851,N,07658.0729,W,0.27,27.56,120816,,,A*4D
$SDDPT,2.58,0.00,100.0*5B
!!VER:1.9,UID:MEGA,APX:0,APS:C,AAX:0,AAR:14.00,WSX:0,WSK:99,
$WIMWV,293.0,R,5.23,N,A*1F
$SDDBT,8.46,f,2.58,M,1.41,F*37
$GPRMC,190316.000,A,3503.8852,N,07658.0728,W,0.25,27.56,120816,,,A*4E
$SDDPT,2.58,0.00,100.0*5B
$SDDBT,8.46,f,2.58,M,1.41,F*37
!!VER:1.9,UID:MEGA,APX:0,APS:C,AAX:0,AAR:14.00,WSX:0,WSK:99,
$WIMWV,292.0,R,6.54,N,A*1D
$SDDPT,2.56,0.00,100.0*55
$SDDBT,8.40,f,2.56,M,1.40,F*3E
$SDDPT,2.58,0.00,100.0*5B
!!VER:1.9,UID:MEGA,APX:0,APS:C,AAX:0,AAR:14.00,WSX:0,WSK:99,
$WIMWV,299.0,R,7.77,N,A*16
$SDDBT,8.46,f,2.58,M,1.41,F*37
$GPRMC,190319.000,A,3503.8853,N,07658.0725,W,0.02,27.56,120816,,,A*48
$SDDPT,2.58,0.00,100.0*5B
$SDDBT,8.46,f,2.58,M,1.41,F*37
!!VER:1.9,UID:MEGA,APX:0,APS:C,AAX:0,AAR:14.00,WSX:0,WSK:99,
$WIMWV,292.0,R,7.98,N,A*1C
$SDDPT,2.56,0.00,100.0*55
$GPRMC,190321.000,A,3503.8853,N,07658.0722,W,0.34,27.56,120816,,,A*41
$SDDBT,8.40,f,2.56,M,1.40,F*3E
$SDDPT,2.61,0.00,100.0*51
$SDDPT,2.65,0.00,100.0*55
$SDDBT,8.69,f,2.65,M,1.44,F*31
$SDDPT,2.58,0.00,100.0*5B
!!VER:1.9,UID:MEGA,APX:0,APS:C,AAX:0,AAR:14.00,WSX:0,WSK:99,
$WIMWV,288.0,R,7.37,N,A*12
$SDDBT,8.46,f,2.58,M,1.41,F*37
$GPRMC,190324.000,A,3503.8853,N,07658.0718,W,0.30,27.56,120816,,,A*49
$SDDPT,2.64,0.00,100.0*54
$SDDBT,8.66,f,2.64,M,1.44,F*3F
$SDDPT,2.58,0.00,100.0*5B
$SDDBT,8.46,f,2.58,M,1.41,F*37
$SDDPT,2.59,0.00,100.0*5A
!!VER:1.9,UID:MEGA,APX:0,APS:C,AAX:0,AAR:14.00,WSX:0,WSK:99,
$WIMWV,280.0,R,6.86,N,A*11
$SDDBT,8.49,f,2.59,M,1.41,F*39
$GPRMC,190327.000,A,3503.8854,N,07658.0714,W,0.40,27.56,120816,,,A*46
$SDDPT,2.59,0.00,100.0*5A
$SDDBT,8.49,f,2.59,M,1.41,F*39
!!VER:1.9,UID:MEGA,APX:0,APS:C,AAX:0,AAR:14.00,WSX:0,WSK:99,
$WIMWV,291.0,R,6.46,N,A*1D
$SDDPT,2.56,0.00,100.0*55
$GPRMC,190329.000,A,3503.8854,N,07658.0710,W,0.40,27.56,120816,,,A*4C
$SDDBT,8.40,f,2.56,M,1.40,F*3E
$SDDPT,2.58,0.00,100.0*5B
$SDDPT,2.59,0.00,100.0*5A
$SDDBT,8.49,f,2.59,M,1.41,F*39
$SDDPT,2.56,0.00,100.0*55
$SDDBT,8.40,f,2.56,M,1.40,F*3E
!!VER:1.9,UID:MEGA,APX:0,APS:C,AAX:0,AAR:14.00,WSX:0,WSK:99,
$SDDPT,2.58,0.00,100.0*5B
$SDDBT,8.46,f,2.58,M,1.41,F*37
$GPGGA,190333.000,3503.8853,N,07658.0704,W,1,08,1.0,-5.1,M,-34.8,M,,0000*4B
$SDDPT,2.56,0.00,100.0*55
$GPGSA,A,3,06,19,17,02,28,03,24,09,,,,,1.6,1.0,1.2*3B
$SDDBT,8.40,f,2.56,M,1.40,F*3E
$SDDPT,2.56,0.00,100.0*55
$SDDPT,2.56,0.00,100.0*55
!!VER:1.9,UID:MEGA,APX:0,APS:C,AAX:0,AAR:14.00,WSX:0,WSK:99,
$WIMWV,298.0,R,4.68,N,A*1A
$SDDBT,8.40,f,2.56,M,1.40,F*3E
$GPRMC,190336.000,A,3503.8854,N,07658.0700,W,0.43,27.56,120816,,,A*40
$SDDPT,2.53,0.00,100.0*50
$SDDBT,8.30,f,2.53,M,1.38,F*33
!!VER:1.9,UID:MEGA,APX:0,APS:C,AAX:0,AAR:14.00,WSX:0,WSK:99,
$WIMWV,300.0,R,4.59,N,A*18
$SDDPT,2.55,0.00,100.0*56
$GPGGA,190338.000,3503.8854,N,07658.0696,W,1,09,0.9,-5.6,M,-34.8,M,,0000*43
$SDDBT,8.36,f,2.55,M,1.39,F*32
$SDDPT,2.55,0.00,100.0*56
!!VER:1.9,UID:MEGA,APX:0,APS:C,AAX:0,AAR:14.00,WSX:0,WSK:99,
$WIMWV,305.0,R,4.94,N,A*1C
$SDDPT,2.53,0.00,100.0*50
$GPRMC,190340.000,A,3503.8854,N,07658.0693,W,0.43,27.56,120816,,,A*4A
$SDDBT,8.30,f,2.53,M,1.38,F*33
!!VER:1.9,UID:MEGA,APX:0,APS:C,AAX:0,AAR:14.00,WSX:0,WSK:99,
$SDDPT,2.56,0.00,100.0*55
$SDDPT,2.53,0.00,100.0*50
$SDDBT,8.30,f,2.53,M,1.38,F*33
$SDDPT,2.52,0.00,100.0*51
$SDDBT,8.26,f,2.52,M,1.37,F*3A
!!VER:1.9,UID:MEGA,APX:0,APS:C,AAX:0,AAR:14.00,WSX:0,WSK:99,
$SDDPT,2.52,0.00,100.0*51
$SDDBT,8.26,f,2.52,M,1.37,F*3A
!!VER:1.9,UID:MEGA,APX:0,APS:C,AAX:0,AAR:14.00,WSX:0,WSK:99,
$GPRMC,190344.000,A,3503.8850,N,07658.0687,W,0.49,27.56,120816,,,A*45
$SDDPT,2.52,0.00,100.0*51
$SDDBT,8.26,f,2.52,M,1.37,F*3A
$SDDPT,2.52,0.00,100.0*51
!!VER:1.9,UID:MEGA,APX:0,APS:C,AAX:0,AAR:14.00,WSX:0,WSK:99,
$WIMWV,308.0,R,8.29,N,A*1B
$SDDBT,8.26,f,2.52,M,1.37,F*3A
$GPRMC,190346.000,A,3503.8851,N,07658.0684,W,0.51,27.56,120816,,,A*4C
$SDDPT,2.55,0.00,100.0*56
$SDDBT,8.36,f,2.55,M,1.39,F*32
$SDDPT,2.55,0.00,100.0*56
$SDDBT,8.36,f,2.55,M,1.39,F*32
$SDDPT,2.59,0.00,100.0*5A
!!VER:1.9,UID:MEGA,APX:0,APS:C,AAX:0,AAR:14.00,WSX:0,WSK:99,
$WIMWV,312.0,R,7.73,N,A*10
$SDDBT,8.49,f,2.59,M,1.41,F*39
$GPRMC,190349.000,A,3503.8857,N,07658.0679,W,0.90,27.56,120816,,,A*4A
$SDDPT,2.52,0.00,100.0*51
$SDDBT,8.26,f,2.52,M,1.37,F*3A
!!VER:1.9,UID:MEGA,APX:0,APS:C,AAX:0,AAR:14.00,WSX:0,WSK:99,
$WIMWV,315.0,R,7.23,N,A*12
$SDDPT,2.53,0.00,100.0*50
$GPRMC,190351.000,A,3503.8860,N,07658.0675,W,0.94,27.56,120816,,,A*4F
$SDDBT,8.30,f,2.53,M,1.38,F*33
$SDDPT,2.53,0.00,100.0*50
$SDDPT,2.52,0.00,100.0*51
$SDDBT,8.26,f,2.52,M,1.37,F*3A
$SDDPT,2.55,0.00,100.0*56
!!VER:1.9,UID:MEGA,APX:0,APS:C,AAX:0,AAR:14.00,WSX:0,WSK:99,
$WIMWV,313.0,R,6.44,N,A*14
$SDDBT,8.36,f,2.55,M,1.39,F*32
!!VER:1.9,UID:MEGA,APX:0,APS:C,AAX:0,AAR:14.00,WSX:0,WSK:99,
$SDDPT,2.55,0.00,100.0*56
$SDDBT,8.36,f,2.55,M,1.39,F*32
!!VER:1.9,UID:MEGA,APX:0,APS:C,AAX:0,AAR:14.00,WSX:0,WSK:99,
$SDDPT,2.56,0.00,100.0*55
$SDDBT,8.40,f,2.56,M,1.40,F*3E
!!VER:1.9,UID:MEGA,APX:0,APS:C,AAX:0,AAR:14.00,WSX:0,WSK:99,
$WIMWV,305.0,R,7.00,N,A*12
$GPRMC,190356.000,A,3503.8865,N,07658.0664,W,0.86,27.56,120816,,,A*4E
$SDDPT,2.58,0.00,100.0*5B
$SDDBT,8.46,f,2.58,M,1.41,F*37
$GPRMC,190357.000,A,3503.8866,N,07658.0662,W,0.71,27.56,120816,,,A*42
$SDDPT,2.55,0.00,100.0*56
$SDDBT,8.36,f,2.55,M,1.39,F*32
!!VER:1.9,UID:MEGA,APX:0,APS:C,AAX:0,AAR:14.00,WSX:0,WSK:99,
$WIMWV,305.0,R,6.20,N,A*11
$SDDPT,2.58,0.00,100.0*5B
$GPRMC,190359.000,A,3503.8871,N,07658.0659,W,1.00,27.56,120816,,,A*45
$SDDBT,8.46,f,2.58,M,1.41,F*37
$SDDPT,2.58,0.00,100.0*5B
$SDDPT,2.61,0.00,100.0*51
$SDDBT,8.56,f,2.61,M,1.42,F*3F
$SDDPT,2.58,0.00,100.0*5B
!!VER:1.9,UID:MEGA,APX:0,APS:C,AAX:0,AAR:14.00,WSX:0,WSK:99,
$WIMWV,302.0,R,5.51,N,A*13
$SDDBT,8.46,f,2.58,M,1.41,F*37
$GPRMC,190402.000,A,3503.8874,N,07658.0653,W,0.81,27.56,120816,,,A*4B
$SDDPT,2.62,0.00,100.0*52
$SDDBT,8.59,f,2.62,M,1.43,F*32
!!VER:1.9,UID:MEGA,APX:0,APS:C,AAX:0,AAR:14.00,WSX:0,WSK:99,
$WIMWV,310.0,R,6.26,N,A*13
$SDDPT,2.56,0.00,100.0*55
$SDDBT,8.40,f,2.56,M,1.40,F*3E
$SDDPT,2.56,0.00,100.0*55
!!VER:1.9,UID:MEGA,APX:0,APS:C,AAX:0,AAR:14.00,WSX:0,WSK:99,
$WIMWV,322.0,R,6.46,N,A*14
$SDDBT,8.40,f,2.56,M,1.40,F*3E
$GPRMC,190405.000,A,3503.8878,N,07658.0646,W,0.85,27.56,120816,,,A*40
$SDDPT,2.59,0.00,100.0*5A
$SDDBT,8.49,f,2.59,M,1.41,F*39
!!VER:1.9,UID:MEGA,APX:0,APS:C,AAX:0,AAR:14.00,WSX:0,WSK:99,
$WIMWV,337.0,R,6.38,N,A*19
$SDDPT,2.59,0.00,100.0*5A
$GPRMC,190407.000,A,3503.8881,N,07658.0642,W,0.83,27.56,120816,,,A*46
$SDDBT,8.49,f,2.59,M,1.41,F*39
$SDDPT,2.58,0.00,100.0*5B
$SDDPT,2.56,0.00,100.0*55
$SDDBT,8.40,f,2.56,M,1.40,F*3E
$SDDPT,2.62,0.00,100.0*52
$SDDBT,8.59,f,2.62,M,1.43,F*32
!!VER:1.9,UID:MEGA,APX:0,APS:C,AAX:0,AAR:14.00,WSX:0,WSK:99,
$SDDPT,2.58,0.00,100.0*5B
$SDDBT,8.46,f,2.58,M,1.41,F*37
$GPRMC,190411.000,A,3503.8887,N,07658.0634,W,0.86,27.56,120816,,,A*43
$SDDPT,2.56,0.00,100.0*55
$SDDBT,8.40,f,2.56,M,1.40,F*3E
$SDDPT,2.61,0.00,100.0*51
!!VER:1.9,UID:MEGA,APX:0,APS:C,AAX:0,AAR:14.00,WSX:0,WSK:99,
$WIMWV,328.0,R,4.22,N,A*1E
$SDDBT,8.56,f,2.61,M,1.42,F*3F
$GPGGA,190413.000,3503.8891,N,07658.0630,W,1,09,0.9,-6.1,M,-34.8,M,,0000*4C
$SDDPT,2.56,0.00,100.0*55
$SDDBT,8.40,f,2.56,M,1.40,F*3E
!!VER:1.9,UID:MEGA,APX:0,APS:C,AAX:0,AAR:14.00,WSX:0,WSK:99,
$WIMWV,316.0,R,5.36,N,A*17
$SDDPT,2.62,0.00,100.0*52
$GPRMC,190415.000,A,3503.8892,N,07658.0628,W,0.35,27.56,120816,,,A*46
$SDDBT,8.59,f,2.62,M,1.43,F*32
$SDDPT,2.58,0.00,100.0*5B
$SDDPT,2.58,0.00,100.0*5B
$SDDBT,8.46,f,2.58,M,1.41,F*37
$SDDPT,2.58,0.00,100.0*5B
!!VER:1.9,UID:MEGA,APX:0,APS:C,AAX:0,AAR:14.00,WSX:0,WSK:99,
$WIMWV,324.0,R,5.02,N,A*11
$SDDBT,8.46,f,2.58,M,1.41,F*37
$GPGGA,190418.000,3503.8894,N,07658.0629,W,1,09,0.9,-6.3,M,-34.8,M,,0000*48
$SDDPT,2.59,0.00,100.0*5A
$SDDBT,8.49,f,2.59,M,1.41,F*39
!!VER:1.9,UID:MEGA,APX:0,APS:C,AAX:0,AAR:14.00,WSX:0,WSK:99,
$WIMWV,330.0,R,5.13,N,A*14
$SDDPT,2.61,0.00,100.0*51
$GPRMC,190420.000,A,3503.8893,N,07658.0635,W,0.92,27.56,120816,,,A*40
$SDDBT,8.56,f,2.61,M,1.42,F*3F
$SDDPT,2.55,0.00,100.0*56
$SDDPT,2.53,0.00,100.0*50
$SDDBT,8.30,f,2.53,M,1.38,F*33
$SDDPT,2.56,0.00,100.0*55
!!VER:1.9,UID:MEGA,APX:0,APS:C,AAX:0,AAR:14.00,WSX:0,WSK:99,
$WIMWV,334.0,R,4.68,N,A*1D
$SDDBT,8.40,f,2.56,M,1.40,F*3E
!!VER:1.9,UID:MEGA,APX:0,APS:C,AAX:0,AAR:14.00,WSX:0,WSK:99,
$SDDPT,2.59,0.00,100.0*5A
$SDDBT,8.49,f,2.59,M,1.41,F*39
$GPRMC,190424.000,A,3503.8882,N,07658.0655,W,1.57,228.38,120816,,,A*7F
$SDDPT,2.61,0.00,100.0*51
$SDDBT,8.56,f,2.61,M,1.42,F*3F
$SDDPT,2.59,0.00,100.0*5A
!!VER:1.9,UID:MEGA,APX:0,APS:C,AAX:0,AAR:14.00,WSX:0,WSK:99,
$WIMWV,327.0,R,5.38,N,A*1B
$SDDBT,8.49,f,2.59,M,1.41,F*39
$GPRMC,190426.000,A,3503.8873,N,07658.0662,W,1.82,216.68,120816,,,A*77
$SDDPT,2.58,0.00,100.0*5B
$SDDBT,8.46,f,2.58,M,1.41,F*37
!!VER:1.9,UID:MEGA,APX:0,APS:C,AAX:0,AAR:14.00,WSX:0,WSK:99,
$WIMWV,331.0,R,5.55,N,A*17
$SDDPT,2.59,0.00,100.0*5A
$GPGGA,190428.000,3503.8868,N,07658.0666,W,1,09,0.9,-5.5,M,-34.8,M,,0000*46
$SDDBT,8.49,f,2.59,M,1.41,F*39
$SDDPT,2.53,0.00,100.0*50
!!VER:1.9,UID:MEGA,APX:0,APS:C,AAX:0,AAR:14.00,WSX:0,WSK:99,
$WIMWV,330.0,R,7.02,N,A*16
$SDDPT,2.61,0.00,100.0*51
$GPRMC,190430.000,A,3503.8866,N,07658.0668,W,0.36,215.42,120816,,,A*7B
$SDDBT,8.56,f,2.61,M,1.42,F*3F
!!VER:1.9,UID:MEGA,APX:0,APS:C,AAX:0,AAR:14.00,WSX:0,WSK:99,
$SDDPT,2.56,0.00,100.0*55
$SDDPT,2.61,0.00,100.0*51
$SDDBT,8.56,f,2.61,M,1.42,F*3F
$SDDPT,2.64,0.00,100.0*54
$SDDBT,8.66,f,2.64,M,1.44,F*3F
!!VER:1.9,UID:MEGA,APX:0,APS:C,AAX:0,AAR:14.00,WSX:0,WSK:99,
$SDDPT,2.64,0.00,100.0*54
$SDDBT,8.66,f,2.64,M,1.44,F*3F
!!VER:1.9,UID:MEGA,APX:0,APS:C,AAX:0,AAR:14.00,WSX:0,WSK:99,
!!VER:1.9,UID:MEGA,APX:0,APS:C,AAX:0,AAR:14.00,WSX:0,WSK:99,
$SDDPT,2.64,0.00,100.0*54
$SDDBT,8.66,f,2.64,M,1.44,F*3F
!!VER:1.9,UID:MEGA,APX:0,APS:C,AAX:0,AAR:14.00,WSX:0,WSK:99,
$WIMWV,338.0,R,5.15,N,A*1A
$GPRMC,190435.000,A,3503.8865,N,07658.0672,W,0.12,215.42,120816,,,A*70
$SDDPT,2.64,0.00,100.0*54
!!VER:1.9,UID:MEGA,APX:0,APS:C,AAX:0,AAR:14.00,WSX:0,WSK:99,
$WIMWV,329.0,R,4.85,N,A*12
$SDDBT,8.66,f,2.64,M,1.44,F*3F
$GPRMC,190436.000,A,3503.8865,N,07658.0672,W,0.00,215.42,120816,,,A*70
$SDDPT,2.86,0.00,100.0*58
$SDDBT,9.38,f,2.86,M,1.56,F*3A
$SDDPT,1.33,0.00,100.0*55
$SDDBT,4.36,f,1.33,M,0.72,F*33
$SDDPT,1.33,0.00,100.0*55
!!VER:1.9,UID:MEGA,APX:0,APS:C,AAX:0,AAR:14.00,WSX:0,WSK:99,
$WIMWV,322.0,R,4.50,N,A*11
$SDDBT,4.36,f,1.33,M,0.72,F*33
$GPRMC,190439.000,A,3503.8865,N,07658.0672,W,0.00,215.42,120816,,,A*7F
$SDDPT,2.61,0.00,100.0*51
$SDDBT,8.56,f,2.61,M,1.42,F*3F
!!VER:1.9,UID:MEGA,APX:0,APS:C,AAX:0,AAR:14.00,WSX:0,WSK:99,
$WIMWV,324.0,R,4.44,N,A*12
$SDDPT,2.59,0.00,100.0*5A
$GPRMC,190441.000,A,3503.8865,N,07658.0672,W,0.34,215.42,120816,,,A*77
$SDDBT,8.49,f,2.59,M,1.41,F*39
$SDDPT,2.58,0.00,100.0*5B
$SDDPT,2.55,0.00,100.0*56
$SDDBT,8.36,f,2.55,M,1.39,F*32
$SDDPT,2.58,0.00,100.0*5B
!!VER:1.9,UID:MEGA,APX:0,APS:C,AAX:0,AAR:14.00,WSX:0,WSK:99,
$WIMWV,329.0,R,6.32,N,A*1C
$SDDBT,8.46,f,2.58,M,1.41,F*37
!!VER:1.9,UID:MEGA,APX:0,APS:C,AAX:0,AAR:14.00,WSX:0,WSK:99,
$SDDPT,2.61,0.00,100.0*51
$SDDBT,8.56,f,2.61,M,1.42,F*3F
$GPRMC,190445.000,A,3503.8869,N,07658.0669,W,0.44,215.42,120816,,,A*72
$SDDPT,2.61,0.00,100.0*51
$SDDBT,8.56,f,2.61,M,1.42,F*3F
$SDDPT,2.55,0.00,100.0*56
!!VER:1.9,UID:MEGA,APX:0,APS:C,AAX:0,AAR:14.00,WSX:0,WSK:99,
$WIMWV,319.0,R,4.44,N,A*1C
$SDDBT,8.36,f,2.55,M,1.39,F*32
$GPRMC,190447.000,A,3503.8872,N,07658.0667,W,0.62,215.42,120816,,,A*70
$SDDPT,2.55,0.00,100.0*56
$SDDBT,8.36,f,2.55,M,1.39,F*32
!!VER:1.9,UID:MEGA,APX:0,APS:C,AAX:0,AAR:14.00,WSX:0,WSK:99,
$WIMWV,316.0,R,5.92,N,A*19
$SDDPT,2.56,0.00,100.0*55
$GPRMC,190449.000,A,3503.8875,N,07658.0664,W,0.63,215.42,120816,,,A*7B
$SDDBT,8.40,f,2.56,M,1.40,F*3E
$SDDPT,2.56,0.00,100.0*55
$SDDPT,2.52,0.00,100.0*51
$SDDBT,8.26,f,2.52,M,1.37,F*3A
$SDDPT,2.52,0.00,100.0*51
!!VER:1.9,UID:MEGA,APX:0,APS:C,AAX:0,AAR:14.00,WSX:0,WSK:99,
$WIMWV,316.0,R,6.90,N,A*18
$SDDBT,8.26,f,2.52,M,1.37,F*3A
$GPRMC,190452.000,A,3503.8878,N,07658.0659,W,0.72,215.42,120816,,,A*72
$SDDPT,2.52,0.00,100.0*51
$SDDBT,8.26,f,2.52,M,1.37,F*3A
!!VER:1.9,UID:MEGA,APX:0,APS:C,AAX:0,AAR:14.00,WSX:0,WSK:99,
$WIMWV,321.0,R,6.14,N,A*10
$SDDPT,2.56,0.00,100.0*55
$SDDBT,8.40,f,2.56,M,1.40,F*3E
$SDDPT,3.13,0.00,100.0*55
$SDDBT,10.27,f,3.13,M,1.71,F*04
!!VER:1.9,UID:MEGA,APX:0,APS:C,AAX:0,AAR:14.00,WSX:0,WSK:99,
$GPRMC,190455.000,A,3503.8881,N,07658.0654,W,0.62,215.42,120816,,,A*7F
$SDDPT,2.52,0.00,100.0*51
$SDDBT,8.26,f,2.52,M,1.37,F*3A
$SDDPT,2.52,0.00,100.0*51
$GPRMC,190457.000,A,3503.8884,N,07658.0650,W,0.55,215.42,120816,,,A*78
$S,1.37,F*3A
!!VER:1.9,UID:MEGA,APX:0,APS:C,AAX:0,AAR:14.00,WSX:0,WSK:99,
$SDDPT,2.52,0.00,100.0*51
$SDDPT,2.56,0.00,100.0*55
$GPRMC,190459.000,A,3503.8887,N,07658.0646,W,0.74,215.42,120816,,,A*71
$SDDPT,2.55,0.00,100.0*56
$SDDBT,8.36,f,2.55,M,1.39,F*32
$SDDPT,2.55,0.00,100.0*56
!!VER:1.9,UID:MEGA,APX:0,APS:C,AAX:0,AAR:14.00,WSX:0,WSK:99,
$WIMWV,292.0,R,6.50,N,A*19
$SDDBT,8.36,f,2.55,M,1.39,F*32
$GPRMC,190501.000,A,3503.8889,N,07658.0643,W,0.71,215.42,120816,,,A*73
$SDDPT,2.58,0.00,100.0*5B
$SDDBT,8.46,f,2.58,M,1.41,F*37
!!VER:1.9,UID:MEGA,APX:0,APS:C,AAX:0,AAR:14.00,WSX:0,WSK:99,
$WIMWV,280.0,R,5.88,N,A*1C
$SDDPT,2.58,0.00,100.0*5B
$GPGGA,190503.000,3503.8889,N,07658.0639,W,1,09,0.9,-4.7,M,-34.8,M,,0000*48
$SDDBT,8.46,f,2.58,M,1.41,F*37
$SDDPT,2.59,0.00,100.0*5A
!!VER:1.9,UID:MEGA,APX:0,APS:C,AAX:0,AAR:14.00,WSX:0,WSK:99,
$WIMWV,279.0,R,5.38,N,A*11
$SDDPT,2.62,0.00,100.0*52
$GPRMC,190505.000,A,3503.8890,N,07658.0637,W,0.41,215.42,120816,,,A*7F
$SDDBT,8.59,f,2.62,M,1.43,F*32
$SDDPT,2.59,0.00,100.0*5A
$SDDPT,2.61,0.00,100.0*51
$SDDBT,8.56,f,2.61,M,1.42,F*3F
$SDDPT,2.59,0.00,100.0*5A
$SDDBT,8.49,f,2.59,M,1.41,F*39
!!VER:1.9,UID:MEGA,APX:0,APS:C,AAX:0,AAR:14.00,WSX:0,WSK:99,
$SDDPT,2.56,0.00,100.0*55
$SDDBT,8.40,f,2.56,M,1.40,F*3E
$GPRMC,190509.000,A,3503.8894,N,07658.0634,W,0.39,215.42,120816,,,A*7B
$SDDPT,2.59,0.00,100.0*5A
$SDDBT,8.49,f,2.59,M,1.41,F*39
$SDDPT,2.55,0.00,100.0*56
!!VER:1.9,UID:MEGA,APX:0,APS:C,AAX:0,AAR:14.00,WSX:0,WSK:99,
$WIMWV,271.0,R,6.24,N,A*17
$SDDBT,8.36,f,2.55,M,1.39,F*32
$GPRMC,190511.000,A,3503.8893,N,07658.0636,W,0.13,215.42,120816,,,A*7F
$SDDPT,2.61,0.00,100.0*51
$SDDBT,8.56,f,2.61,M,1.42,F*3F
!!VER:1.9,UID:MEGA,APX:0,APS:C,AAX:0,AAR:14.00,WSX:0,WSK:99,
$WIMWV,264.0,R,6.38,N,A*1E
$SDDPT,2.59,0.00,100.0*5A
$GPGGA,190513.000,3503.8894,N,07658.0639,W,1,09,0.9,-4.1,M,-34.8,M,,0000*43
$SDDBT,8.49,f,2.59,M,1.41,F*39
$SDDPT,2.65,0.00,100.0*55
!!VER:1.9,UID:MEGA,APX:0,APS:C,AAX:0,AAR:14.00,WSX:0,WSK:99,
$WIMWV,256.0,R,5.96,N,A*18
$SDDPT,2.61,0.00,100.0*51
$GPRMC,190515.000,A,3503.8894,N,07658.0644,W,0.55,215.42,120816,,,A*7B
$SDDBT,8.56,f,2.61,M,1.42,F*3F
$SDDPT,2.56,0.00,100.0*55
$SDDPT,2.56,0.00,100.0*55
$SDDBT,8.40,f,2.56,M,1.40,F*3E
$SDDPT,2.56,0.00,100.0*55
!!VER:1.9,UID:MEGA,APX:0,APS:C,AAX:0,AAR:14.00,WSX:0,WSK:99,
$WIMWV,254.0,R,6.24,N,A*10
$SDDBT,8.40,f,2.56,M,1.40,F*3E
$GPGGA,190518.000,3503.8895,N,07658.0651,W,1,09,0.9,-4.3,M,-34.8,M,,0000*45
$SDDPT,2.58,0.00,100.0*5B
$SDDBT,8.46,f,2.58,M,1.41,F*37
!!VER:1.9,UID:MEGA,APX:0,APS:C,AAX:0,AAR:14.00,WSX:0,WSK:99,
$WIMWV,253.0,R,5.59,N,A*1E
$SDDPT,2.55,0.00,100.0*56
$GPRMC,190520.000,A,3503.8898,N,07658.0654,W,0.57,215.42,120816,,,A*72
$SDDBT,8.36,f,2.55,M,1.39,F*32
$SDDPT,2.59,0.00,100.0*5A
$SDDPT,2.58,0.00,100.0*5B
$SDDBT,8.46,f,2.58,M,1.41,F*37
$SDDPT,2.58,0.00,100.0*5B
!!VER:1.9,UID:MEGA,APX:0,APS:C,AAX:0,AAR:14.00,WSX:0,WSK:99,
$WIMWV,254.0,R,5.02,N,A*17
$SDDBT,8.46,f,2.58,M,1.41,F*37
$GPGGA,190523.000,3503.8902,N,07658.0660,W,1,09,0.9,-5.0,M,-34.8,M,,0000*42
$SDDPT,2.55,0.00,100.0*56
$SDDBT,8.36,f,2.55,M,1.39,F*32
$SDDPT,2.55,0.00,100.0*56
$GPRMC,190525.000,A,3503.8905,N,07658.0665,W,0.63,215.42,120816,,,A*77
$Sf,2.55,M,1.39,F*32
!!VER:1.9,UID:MEGA,APX:0,APS:C,AAX:0,AAR:14.00,WSX:0,WSK:99,
$SDDPT,2.56,0.00,100.0*55
$SDDPT,2.55,0.00,100.0*56
!!VER:1.9,UID:MEGA,APX:0,APS:C,AAX:0,AAR:14.00,WSX:0,WSK:99,
$SDDPT,2.59,0.00,100.0*5A
$SDDBT,8.49,f,2.59,M,1.41,F*39
!!VER:1.9,UID:MEGA,APX:0,APS:C,AAX:0,AAR:14.00,WSX:0,WSK:99,
$WIMWV,224.0,R,6.92,N,A*1A
$GPGGA,190528.000,3503.8908,N,07658.0670,W,1,08,1.0,-4.9,M,-34.8,M,,0000*43
$SDDPT,2.59,0.00,100.0*5A
$GPGSA,A,3,06,19,17,02,28,12,03,09,,,,,1.7,1.0,1.3*3E
$SDDBT,8.49,f,2.59,M,1.41,F*39
$SDDPT,2.56,0.00,100.0*55
$SDDPT,2.55,0.00,100.0*56
$SDDBT,8.36,f,2.55,M,1.39,F*32
!!VER:1.9,UID:MEGA,APX:0,APS:C,AAX:0,AAR:14.00,WSX:0,WSK:99,
$SDDPT,2.55,0.00,100.0*56
$SDDBT,8.36,f,2.55,M,1.39,F*32
!!VER:1.9,UID:MEGA,APX:0,APS:C,AAX:0,AAR:14.00,WSX:0,WSK:99,
$WIMWV,223.0,R,8.67,N,A*19
$GPRMC,190532.000,A,3503.8914,N,07658.0668,W,0.01,215.42,120816,,,A*78
$SDDPT,2.56,0.00,100.0*55
$SDDBT,8.40,f,2.56,M,1.40,F*3E
$SDDPT,2.55,0.00,100.0*56
!!VER:1.9,UID:MEGA,APX:0,APS:C,AAX:0,AAR:14.00,WSX:0,WSK:99,
$WIMWV,225.0,R,8.42,N,A*18
$SDDBT,8.36,f,2.55,M,1.39,F*32
!!VER:1.9,UID:MEGA,APX:0,APS:C,AAX:0,AAR:14.00,WSX:0,WSK:99,
$SDDPT,2.58,0.00,100.0*5B
$SDDBT,8.46,f,2.58,M,1.41,F*37
$GPRMC,190535.000,A,3503.8914,N,07658.0668,W,0.00,215.42,120816,,,A*7E
$SDDPT,2.56,0.00,100.0*55
$SDDBT,8.40,f,2.56,M,1.40,F*3E
$SDDPT,2.55,0.00,100.0*56
!!VER:1.9,UID:MEGA,APX:0,APS:C,AAX:0,AAR:14.00,WSX:0,WSK:99,
$WIMWV,226.0,R,8.23,N,A*1C
$SDDBT,8.36,f,2.55,M,1.39,F*32
$GPRMC,190537.000,A,3503.8915,N,07658.0668,W,0.09,215.42,120816,,,A*74
$SDDPT,2.56,0.00,100.0*55
$SDDBT,8.40,f,2.56,M,1.40,F*3E
!!VER:1.9,UID:MEGA,APX:0,APS:C,AAX:0,AAR:14.00,WSX:0,WSK:99,
$WIMWV,226.0,R,8.09,N,A*14
$SDDPT,2.55,0.00,100.0*56
$GPRMC,190539.000,A,3503.8915,N,07658.0669,W,0.20,215.42,120816,,,A*70
$S,f,2.55,M,1.39,F*32
!!VER:1.9,UID:MEGA,APX:0,APS:C,AAX:0,AAR:14.00,WSX:0,WSK:99,
$SDDPT,2.62,0.00,100.0*52
$SDDPT,2.65,0.00,100.0*55
!!VER:1.9,UID:MEGA,APX:0,APS:C,AAX:0,AAR:14.00,WSX:0,WSK:99,
$SDDPT,2.55,0.00,100.0*56
$SDDBT,8.36,f,2.55,M,1.39,F*32
!!VER:1.9,UID:MEGA,APX:0,APS:C,AAX:0,AAR:14.00,WSX:0,WSK:99,
$WIMWV,216.0,R,7.96,N,A*1E
$GPRMC,190542.000,A,3503.8915,N,07658.0672,W,0.13,215.42,120816,,,A*76
$SDDPT,2.58,0.00,100.0*5B
$SDDBT,8.46,f,2.58,M,1.41,F*37
!!VER:1.9,UID:MEGA,APX:0,APS:C,AAX:0,AAR:14.00,WSX:0,WSK:99,
$SDDPT,2.56,0.00,100.0*55
$SDDBT,8.40,f,2.56,M,1.40,F*3E
!!VER:1.9,UID:MEGA,APX:0,APS:C,AAX:0,AAR:14.00,WSX:0,WSK:99,
$SDDPT,2.58,0.00,100.0*5B
$SDDBT,8.46,f,2.58,M,1.41,F*37
!!VER:1.9,UID:MEGA,APX:0,APS:C,AAX:0,AAR:14.00,WSX:0,WSK:99,
$WIMWV,206.0,R,8.13,N,A*1D
$GPRMC,190545.000,A,3503.8914,N,07658.0673,W,0.21,215.42,120816,,,A*70
$SDDPT,2.55,0.00,100.0*56
$SDDBT,8.36,f,2.55,M,1.39,F*32
$SDDPT,2.56,0.00,100.0*55
$SDDBT,8.40,f,2.56,M,1.40,F*3E
!!VER:1.9,UID:MEGA,APX:0,APS:C,AAX:0,AAR:14.00,WSX:0,WSK:99,
$SDDPT,2.58,0.00,100.0*5B
$SDDBT,8.46,f,2.58,M,1.41,F*37
$GPGGA,190548.000,3503.8915,N,07658.0674,W,1,09,0.9,-6.7,M,-34.8,M,,0000*48
$SDDPT,2.56,0.00,100.0*55
$GPGSA,A,3,06,19,17,02,12,28,03,24,09,,,,1.5,0.9,1.1*30
$SDDBT,8.40,f,2.56,M,1.40,F*3E
$SDDPT,2.59,0.00,100.0*5A
$SDDPT,2.56,0.00,100.0*55
!!VER:1.9,UID:MEGA,APX:0,APS:C,AAX:0,AAR:14.00,WSX:0,WSK:99,
$WIMWV,200.0,R,7.19,N,A*1E
$SDDBT,8.40,f,2.56,M,1.40,F*3E
$GPRMC,190551.000,A,3503.8914,N,07658.0676,W,0.23,215.42,120816,,,A*72
$SDDPT,2.64,0.00,100.0*54
$SDDBT,8.66,f,2.64,M,1.44,F*3F
!!VER:1.9,UID:MEGA,APX:0,APS:C,AAX:0,AAR:14.00,WSX:0,WSK:99,
$WIMWV,192.0,R,7.05,N,A*1B
$SDDPT,2.56,0.00,100.0*55
$GPGGA,190553.000,3503.8912,N,07658.0680,W,1,09,0.9,-6.7,M,-34.8,M,,0000*4E
$S8.40,f,2.56,M,1.40,F*3E
$SDDPT,2.64,0.00,100.0*54
!!VER:1.9,UID:MEGA,APX:0,APS:C,AAX:0,AAR:14.00,WSX:0,WSK:99,
$WIMWV,183.0,R,7.16,N,A*19
$SDDPT,2.58,0.00,100.0*5B
!!VER:1.9,UID:MEGA,APX:0,APS:C,AAX:0,AAR:14.00,WSX:0,WSK:99,
$SDDPT,2.58,0.00,100.0*5B
$SDDBT,8.46,f,2.58,M,1.41,F*37
!!VER:1.9,UID:MEGA,APX:0,APS:C,AAX:0,AAR:14.00,WSX:0,WSK:99,
$WIMWV,180.0,R,7.07,N,A*1A
$GPRMC,190556.000,A,3503.8907,N,07658.0680,W,0.67,215.42,120816,,,A*7E
$SDDPT,2.58,0.00,100.0*5B
$SDDBT,8.46,f,2.58,M,1.41,F*37
$SDDPT,2.55,0.00,100.0*56
$SDDBT,8.36,f,2.55,M,1.39,F*32
!!VER:1.9,UID:MEGA,APX:0,APS:C,AAX:0,AAR:14.00,WSX:0,WSK:99,
$SDDPT,2.59,0.00,100.0*5A
$SDDBT,8.49,f,2.59,M,1.41,F*39
!!VER:1.9,UID:MEGA,APX:0,APS:C,AAX:0,AAR:14.00,WSX:0,WSK:99,
$GPRMC,190559.000,A,3503.8903,N,07658.0683,W,0.81,215.42,120816,,,A*7E
$SDDPT,2.59,0.00,100.0*5A
$SDDBT,8.49,f,2.59,M,1.41,F*39
$SDDPT,2.55,0.00,100.0*56
!!VER:1.9,UID:MEGA,APX:0,APS:C,AAX:0,AAR:14.00,WSX:0,WSK:99,
$WIMWV,185.0,R,6.98,N,A*18
$SDDBT,8.36,f,2.55,M,1.39,F*32
$GPRMC,190601.000,A,3503.8898,N,07658.0686,W,0.75,215.42,120816,,,A*7D
$SDDPT,2.55,0.00,100.0*56
$SDDBT,8.36,f,2.55,M,1.39,F*32
!!VER:1.9,UID:MEGA,APX:0,APS:C,AAX:0,AAR:14.00,WSX:0,WSK:99,
$WIMWV,187.0,R,6.14,N,A*1E
$SDDPT,2.56,0.00,100.0*55
$SDDBT,8.40,f,2.56,M,1.40,F*3E
$SDDPT,2.58,0.00,100.0*5B
!!VER:1.9,UID:MEGA,APX:0,APS:C,AAX:0,AAR:14.00,WSX:0,WSK:99,
$WIMWV,187.0,R,5.84,N,A*14
$SDDBT,8.46,f,2.58,M,1.41,F*37
$GPRMC,190604.000,A,3503.8891,N,07658.0689,W,0.76,215.42,120816,,,A*7D
$SDDPT,2.53,0.00,100.0*50
$SDDBT,8.30,f,2.53,M,1.38,F*33
!!VER:1.9,UID:MEGA,APX:0,APS:C,AAX:0,AAR:14.00,WSX:0,WSK:99,
$WIMWV,181.0,R,5.00,N,A*1E
$SDDPT,2.53,0.00,100.0*50
$GPRMC,190606.000,A,3503.8887,N,07658.0693,W,0.92,215.42,120816,,,A*79
$SDDBT,8.30,f,2.53,M,1.38,F*33
$SDDPT,2.55,0.00,100.0*56
$SDDPT,2.56,0.00,100.0*55
$SDDBT,8.40,f,2.56,M,1.40,F*3E
$SDDPT,2.56,0.00,100.0*55
!!VER:1.9,UID:MEGA,APX:0,APS:C,AAX:0,AAR:14.00,WSX:0,WSK:99,
$WIMWV,180.0,R,5.36,N,A*1A
$SDDBT,8.40,f,2.56,M,1.40,F*3E
$GPRMC,190609.000,A,3503.8886,N,07658.0693,W,0.00,215.42,120816,,,A*7C
$SDDPT,2.53,0.00,100.0*50
$SDDBT,8.30,f,2.53,M,1.38,F*33
!!VER:1.9,UID:MEGA,APX:0,APS:C,AAX:0,AAR:14.00,WSX:0,WSK:99,
$WIMWV,175.0,R,6.50,N,A*13
$SDDPT,2.53,0.00,100.0*50
$SDDBT,8.30,f,2.53,M,1.38,F*33
$SDDPT,2.55,0.00,100.0*56
!!VER:1.9,UID:MEGA,APX:0,APS:C,AAX:0,AAR:14.00,WSX:0,WSK:99,
$WIMWV,172.0,R,6.74,N,A*12
$SDDBT,8.36,f,2.55,M,1.39,F*32
$GPRMC,190612.000,A,3503.8890,N,07658.0691,W,0.70,215.42,120816,,,A*74
$SDDPT,2.55,0.00,100.0*56
$SDDBT,8.36,f,2.55,M,1.39,F*32
!!VER:1.9,UID:MEGA,APX:0,APS:C,AAX:0,AAR:14.00,WSX:0,WSK:99,
$WIMWV,178.0,R,6.00,N,A*1B
$SDDPT,3.01,0.00,100.0*56
$SDDBT,9.87,f,3.01,M,1.64,F*31
$SDDPT,2.55,0.00,100.0*56
$SDDBT,8.36,f,2.55,M,1.39,F*32
$GPRMC,190615.000,A,3503.8897,N,07658.0687,W,0.67,215.42,120816,,,A*75
$SDDPT,2.58,0.00,100.0*5B
$SDDBT,8.46,f,2.58,M,1.41,F*37
!!VER:1.9,UID:MEGA,APX:0,APS:C,AAX:0,AAR:14.00,WSX:0,WSK:99,
$SDDPT,2.59,0.00,100.0*5A
$GPRMC,190617.000,A,3503.8901,N,07658.0686,W,0.74,215.42,120816,,,A*7A
$S2.59,M,1.41,F*39
!!VER:1.9,UID:MEGA,APX:0,APS:C,AAX:0,AAR:14.00,WSX:0,WSK:99,
$SDDPT,2.56,0.00,100.0*55
$SDDPT,2.58,0.00,100.0*5B
!!VER:1.9,UID:MEGA,APX:0,APS:C,AAX:0,AAR:14.00,WSX:0,WSK:99,
$SDDPT,2.59,0.00,100.0*5A
$SDDBT,8.49,f,2.59,M,1.41,F*39
!!VER:1.9,UID:MEGA,APX:0,APS:C,AAX:0,AAR:14.00,WSX:0,WSK:99,
$WIMWV,179.0,R,6.50,N,A*1F
$GPRMC,190620.000,A,3503.8910,N,07658.0683,W,1.14,215.42,120816,,,A*7C
$SDDPT,2.58,0.00,100.0*5B
$SDDBT,8.46,f,2.58,M,1.41,F*37
!!VER:1.9,UID:MEGA,APX:0,APS:C,AAX:0,AAR:14.00,WSX:0,WSK:99,
$GPRMC,190621.000,A,3503.8912,N,07658.0682,W,1.04,215.42,120816,,,A*7F
$SDDPT,2.61,0.00,100.0*51
$SDDBT,8.56,f,2.61,M,1.42,F*3F
!!VER:1.9,UID:MEGA,APX:0,APS:C,AAX:0,AAR:14.00,WSX:0,WSK:99,
$WIMWV,176.0,R,6.76,N,A*14
$SDDPT,2.59,0.00,100.0*5A
$GPGGA,190623.000,3503.8918,N,07658.0681,W,1,09,0.9,-7.1,M,-34.8,M,,0000*46
$S9,f,2.59,M,1.41,F*39
$SDDPT,2.56,0.00,100.0*55
$SDDPT,2.64,0.00,100.0*54
!!VER:1.9,UID:MEGA,APX:0,APS:C,AAX:0,AAR:14.00,WSX:0,WSK:99,
$SDDPT,2.55,0.00,100.0*56
$SDDBT,8.36,f,2.55,M,1.39,F*32
!!VER:1.9,UID:MEGA,APX:0,APS:C,AAX:0,AAR:14.00,WSX:0,WSK:99,
$WIMWV,180.0,R,6.22,N,A*1C
$GPRMC,190626.000,A,3503.8927,N,07658.0679,W,1.38,15.00,120816,,,A*41
$SDDPT,2.55,0.00,100.0*56
$SDDBT,8.36,f,2.55,M,1.39,F*32
!!VER:1.9,UID:MEGA,APX:0,APS:C,AAX:0,AAR:14.00,WSX:0,WSK:99,
$SDDPT,2.58,0.00,100.0*5B
$SDDBT,8.46,f,2.58,M,1.41,F*37
!!VER:1.9,UID:MEGA,APX:0,APS:C,AAX:0,AAR:14.00,WSX:0,WSK:99,
$SDDPT,2.56,0.00,100.0*55
$SDDBT,8.40,f,2.56,M,1.40,F*3E
!!VER:1.9,UID:MEGA,APX:0,APS:C,AAX:0,AAR:14.00,WSX:0,WSK:99,
$WIMWV,190.0,R,4.74,N,A*1C
$GPRMC,190629.000,A,3503.8936,N,07658.0677,W,1.11,16.58,120816,,,A*45
$SDDPT,2.53,0.00,100.0*50
$SDDBT,8.30,f,2.53,M,1.38,F*33
$SDDPT,2.52,0.00,100.0*51
$SDDBT,8.26,f,2.52,M,1.37,F*3A
!!VER:1.9,UID:MEGA,APX:0,APS:C,AAX:0,AAR:14.00,WSX:0,WSK:99,
$SDDPT,2.55,0.00,100.0*56
$SDDBT,8.36,f,2.55,M,1.39,F*32
$GPRMC,190632.000,A,3503.8946,N,07658.0677,W,1.26,12.90,120816,,,A*4C
$SDDPT,2.53,0.00,100.0*50
$SDDBT,8.30,f,2.53,M,1.38,F*33
$SDDPT,2.50,0.00,100.0*53
!!VER:1.9,UID:MEGA,APX:0,APS:C,AAX:0,AAR:14.00,WSX:0,WSK:99,
$WIMWV,164.0,R,3.62,N,A*17
$SDDBT,8.20,f,2.50,M,1.36,F*3F
!!VER:1.9,UID:MEGA,APX:0,APS:C,AAX:0,AAR:14.00,WSX:0,WSK:99,
$SDDPT,2.47,0.00,100.0*55
$SDDBT,8.10,f,2.47,M,1.35,F*39
$GPRMC,190635.000,A,3503.8956,N,07658.0675,W,1.35,17.69,120816,,,A*49
$SDDPT,2.47,0.00,100.0*55
$SDDBT,8.10,f,2.47,M,1.35,F*39
$SDDPT,2.49,0.00,100.0*5B
!!VER:1.9,UID:MEGA,APX:0,APS:C,AAX:0,AAR:14.00,WSX:0,WSK:99,
$WIMWV,154.0,R,5.61,N,A*11
$SDDBT,8.17,f,2.49,M,1.36,F*33
$GPRMC,190637.000,A,3503.8964,N,07658.0673,W,1.39,20.46,120816,,,A*49
$SDDPT,2.43,0.00,100.0*51
$SDDBT,7.97,f,2.43,M,1.32,F*3A
!!VER:1.9,UID:MEGA,APX:0,APS:C,AAX:0,AAR:14.00,WSX:0,WSK:99,
$WIMWV,152.0,R,5.65,N,A*13
$SDDPT,2.49,0.00,100.0*5B
$GPRMC,190639.000,A,3503.8969,N,07658.0671,W,0.89,20.46,120816,,,A*42
$SDDBT,8.17,f,2.49,M,1.36,F*33
$SDDPT,2.43,0.00,100.0*51
$SDDPT,2.44,0.00,100.0*56
$SDDBT,8.00,f,2.44,M,1.33,F*3D
$SDDPT,2.50,0.00,100.0*53
$SDDBT,8.20,f,2.50,M,1.36,F*3F
!!VER:1.9,UID:MEGA,APX:0,APS:C,AAX:0,AAR:14.00,WSX:0,WSK:99,
$SDDPT,2.47,0.00,100.0*55
$SDDBT,8.10,f,2.47,M,1.35,F*39
!!VER:1.9,UID:MEGA,APX:0,APS:C,AAX:0,AAR:14.00,WSX:0,WSK:99,
$WIMWV,129.0,R,8.02,N,A*13
$GPGGA,190643.000,3503.8976,N,07658.0669,W,1,09,0.9,-7.2,M,-34.8,M,,0000*4D
$SDDPT,2.49,0.00,100.0*5B
$GPGSA,A,3,06,19,17,02,12,28,03,24,09,,,,1.5,0.9,1.1*30
$SDDBT,8.17,f,2.49,M,1.36,F*33
$SDDPT,2.49,0.00,100.0*5B
$SDDPT,2.49,0.00,100.0*5B
!!VER:1.9,UID:MEGA,APX:0,APS:C,AAX:0,AAR:14.00,WSX:0,WSK:99,
$WIMWV,125.0,R,6.68,N,A*1D
$SDDBT,8.17,f,2.49,M,1.36,F*33
$GPRMC,190646.000,A,3503.8979,N,07658.0670,W,0.47,20.46,120816,,,A*48
$SDDPT,2.47,0.00,100.0*55
$SDDBT,8.10,f,2.47,M,1.35,F*39
!!VER:1.9,UID:MEGA,APX:0,APS:C,AAX:0,AAR:14.00,WSX:0,WSK:99,
$WIMWV,136.0,R,5.53,N,A*14
$SDDPT,2.58,0.00,100.0*5B
$SDDBT,8.46,f,2.58,M,1.41,F*37
$SDDPT,2.58,0.00,100.0*5B
!!VER:1.9,UID:MEGA,APX:0,APS:C,AAX:0,AAR:14.00,WSX:0,WSK:99,
$WIMWV,145.0,R,4.83,N,A*1C
$SDDBT,8.46,f,2.58,M,1.41,F*37
$GPRMC,190649.000,A,3503.8981,N,07658.0673,W,0.47,20.46,120816,,,A*43
$SDDPT,2.56,0.00,100.0*55
$SDDBT,8.40,f,2.56,M,1.40,F*3E
!!VER:1.9,UID:MEGA,APX:0,APS:C,AAX:0,AAR:14.00,WSX:0,WSK:99,
$WIMWV,143.0,R,3.93,N,A*1C
$SDDPT,2.52,0.00,100.0*51
$GPRMC,190651.000,A,3503.8983,N,07658.0676,W,0.31,20.46,120816,,,A*4C
$SDDBT,8.26,f,2.52,M,1.37,F*3A
$SDDPT,2.49,0.00,100.0*5B
$SDDPT,2.47,0.00,100.0*55
$SDDBT,8.10,f,2.47,M,1.35,F*39
$SDDPT,2.46,0.00,100.0*54
$SDDBT,8.07,f,2.46,M,1.34,F*3F
!!VER:1.9,UID:MEGA,APX:0,APS:C,AAX:0,AAR:14.00,WSX:0,WSK:99,
$SDDPT,2.46,0.00,100.0*54
$SDDBT,8.07,f,2.46,M,1.34,F*3F
$GPRMC,190655.000,A,3503.8985,N,07658.0677,W,0.35,20.46,120816,,,A*4B
$SDDPT,2.53,0.00,100.0*50
$SDDBT,8.30,f,2.53,M,1.38,F*33
$SDDPT,2.53,0.00,100.0*50
!!VER:1.9,UID:MEGA,APX:0,APS:C,AAX:0,AAR:14.00,WSX:0,WSK:99,
$WIMWV,121.0,R,6.14,N,A*12
$SDDBT,8.30,f,2.53,M,1.38,F*33
$GPRMC,190657.000,A,3503.8989,N,07658.0673,W,0.78,20.46,120816,,,A*48
$SDDPT,2.44,0.00,100.0*56
$SDDBT,8.00,f,2.44,M,1.33,F*3D
$SDDPT,2.41,0.00,100.0*53
$SDDBT,7.90,f,2.41,M,1.31,F*3C
$SDDPT,2.47,0.00,100.0*55
!!VER:1.9,UID:MEGA,APX:0,APS:C,AAX:0,AAR:14.00,WSX:0,WSK:99,
$WIMWV,107.0,R,6.58,N,A*1E
$SDDBT,8.10,f,2.47,M,1.35,F*39
$GPRMC,190700.000,A,3503.8991,N,07658.0666,W,0.87,20.46,120816,,,A*46
$SDDPT,2.44,0.00,100.0*56
$SDDBT,8.00,f,2.44,M,1.33,F*3D
$SDDPT,2.46,0.00,100.0*54
$SDDBT,8.07,f,2.46,M,1.34,F*3F
$SDDPT,2.40,0.00,100.0*52
!!VER:1.9,UID:MEGA,APX:0,APS:C,AAX:0,AAR:14.00,WSX:0,WSK:99,
$WIMWV,102.0,R,6.32,N,A*17
$SDDBT,7.87,f,2.40,M,1.31,F*3B
!!VER:1.9,UID:MEGA,APX:0,APS:C,AAX:0,AAR:14.00,WSX:0,WSK:99,
$SDDPT,2.40,0.00,100.0*52
$SDDBT,7.87,f,2.40,M,1.31,F*3B
$GPRMC,190704.000,A,3503.8995,N,07658.0655,W,0.77,20.46,120816,,,A*49
$SDDPT,2.40,0.00,100.0*52
$SDDBT,7.87,f,2.40,M,1.31,F*3B
$SDDPT,2.41,0.00,100.0*53
!!VER:1.9,UID:MEGA,APX:0,APS:C,AAX:0,AAR:14.00,WSX:0,WSK:99,
$WIMWV,102.0,R,6.68,N,A*18
$SDDBT,7.90,f,2.41,M,1.31,F*3C
$GPRMC,190706.000,A,3503.8996,N,07658.0651,W,0.48,20.46,120816,,,A*40
$SDDPT,2.40,0.00,100.0*52
$SDDBT,7.87,f,2.40,M,1.31,F*3B
$SDDPT,2.40,0.00,100.0*52
$SDDBT,7.87,f,2.40,M,1.31,F*3B
$SDDPT,2.37,0.00,100.0*52
!!VER:1.9,UID:MEGA,APX:0,APS:C,AAX:0,AAR:14.00,WSX:0,WSK:99,
$WIMWV,105.0,R,8.71,N,A*19
$SDDBT,7.77,f,2.37,M,1.29,F*3D
$GPRMC,190709.000,A,3503.8999,N,07658.0650,W,0.41,20.46,120816,,,A*48
$SDDPT,2.37,0.00,100.0*52
$SDDBT,7.77,f,2.37,M,1.29,F*3D
$SDDPT,2.41,0.00,100.0*53
$SDDBT,7.90,f,2.41,M,1.31,F*3C
$SDDPT,2.41,0.00,100.0*53
!!VER:1.9,UID:MEGA,APX:0,APS:C,AAX:0,AAR:14.00,WSX:0,WSK:99,
$WIMWV,105.0,R,9.72,N,A*1B
$SDDBT,7.90,f,2.41,M,1.31,F*3C
$GPRMC,190712.000,A,3503.9004,N,07658.0654,W,0.79,20.46,120816,,,A*41
$SDDPT,2.55,0.00,100.0*56
$SDDBT,8.36,f,2.55,M,1.39,F*32
$SDDPT,2.59,0.00,100.0*5A
$SDDBT,8.49,f,2.59,M,1.41,F*39
$SDDPT,2.56,0.00,100.0*55
!!VER:1.9,UID:MEGA,APX:0,APS:C,AAX:0,AAR:14.00,WSX:0,WSK:99,
$WIMWV,102.0,R,8.57,N,A*1A
$SDDBT,8.40,f,2.56,M,1.40,F*3E
$GPRMC,190715.000,A,3503.9011,N,07658.0662,W,1.06,20.46,120816,,,A*4E
$SDDPT,2.47,0.00,100.0*55
$SDDBT,8.10,f,2.47,M,1.35,F*39
!!VER:1.9,UID:MEGA,APX:0,APS:C,AAX:0,AAR:14.00,WSX:0,WSK:99,
$WIMWV,112.0,R,7.07,N,A*11
$SDDPT,2.52,0.00,100.0*51
$GPRMC,190717.000,A,3503.9014,N,07658.0667,W,1.07,20.46,120816,,,A*4D
$SDDBT,8.26,f,2.52,M,1.37,F*3A
$SDDPT,2.50,0.00,100.0*53
$SDDPT,2.44,0.00,100.0*56
$SDDBT,8.00,f,2.44,M,1.33,F*3D
$SDDPT,2.47,0.00,100.0*55
!!VER:1.9,UID:MEGA,APX:0,APS:C,AAX:0,AAR:14.00,WSX:0,WSK:99,
$WIMWV,112.0,R,7.07,N,A*11
$SDDBT,8.10,f,2.47,M,1.35,F*39
!!VER:1.9,UID:MEGA,APX:0,APS:C,AAX:0,AAR:14.00,WSX:0,WSK:99,
$SDDPT,2.47,0.00,100.0*55
$SDDBT,8.10,f,2.47,M,1.35,F*39
$GPRMC,190721.000,A,3503.9018,N,07658.0679,W,0.90,20.46,120816,,,A*44
$SDDPT,2.50,0.00,100.0*53
$SDDBT,8.20,f,2.50,M,1.36,F*3F
$SDDPT,2.49,0.00,100.0*5B
!!VER:1.9,UID:MEGA,APX:0,APS:C,AAX:0,AAR:14.00,WSX:0,WSK:99,
$WIMWV,116.0,R,5.65,N,A*13
$SDDBT,8.17,f,2.49,M,1.36,F*33
!!VER:1.9,UID:MEGA,APX:0,APS:C,AAX:0,AAR:14.00,WSX:0,WSK:99,
$SDDPT,2.53,0.00,100.0*50
$SDDBT,8.30,f,2.53,M,1.38,F*33
$GPRMC,190724.000,A,3503.9018,N,07658.0684,W,0.07,20.46,120816,,,A*4D
$SDDPT,2.53,0.00,100.0*50
$SDDBT,8.30,f,2.53,M,1.38,F*33
$SDDPT,2.53,0.00,100.0*50
!!VER:1.9,UID:MEGA,APX:0,APS:C,AAX:0,AAR:14.00,WSX:0,WSK:99,
$WIMWV,107.0,R,6.04,N,A*17
$SDDBT,8.30,f,2.53,M,1.38,F*33
$GPRMC,190726.000,A,3503.9018,N,07658.0682,W,1.06,20.46,120816,,,A*49
$SDDPT,2.52,0.00,100.0*51
$SDDBT,8.26,f,2.52,M,1.37,F*3A
$SDDPT,2.47,0.00,100.0*55
$SDDBT,8.10,f,2.47,M,1.35,F*39
$SDDPT,2.46,0.00,100.0*54
!!VER:1.9,UID:MEGA,APX:0,APS:C,AAX:0,AAR:14.00,WSX:0,WSK:99,
$WIMWV,88.0,R,5.92,N,A*2D
$SDDBT,8.07,f,2.46,M,1.34,F*3F
$GPRMC,190729.000,A,3503.9015,N,07658.0668,W,1.69,104.75,120816,,,A*71
$SDDPT,2.46,0.00,100.0*54
$SDDBT,8.07,f,2.46,M,1.34,F*3F
!!VER:1.9,UID:MEGA,APX:0,APS:C,AAX:0,AAR:14.00,WSX:0,WSK:99,
$WIMWV,77.0,R,5.80,N,A*2E
$SDDPT,2.46,0.00,100.0*54
$SDDBT,8.07,f,2.46,M,1.34,F*3F
$SDDPT,2.49,0.00,100.0*5B
!!VER:1.9,UID:MEGA,APX:0,APS:C,AAX:0,AAR:14.00,WSX:0,WSK:99,
$WIMWV,76.0,R,5.59,N,A*2B
$SDDBT,8.17,f,2.49,M,1.36,F*33
$GPRMC,190732.000,A,3503.9011,N,07658.0652,W,1.24,114.62,120816,,,A*78
$SDDPT,2.47,0.00,100.0*55
$SDDBT,8.10,f,2.47,M,1.35,F*39
!!VER:1.9,UID:MEGA,APX:0,APS:C,AAX:0,AAR:14.00,WSX:0,WSK:99,
$WIMWV,70.0,R,5.90,N,A*28
$SDDPT,2.47,0.00,100.0*55
$SDDBT,8.10,f,2.47,M,1.35,F*39
$SDDPT,2.53,0.00,100.0*50
$SDDBT,8.30,f,2.53,M,1.38,F*33
!!VER:1.9,UID:MEGA,APX:0,APS:C,AAX:0,AAR:14.00,WSX:0,WSK:99,
$GPRMC,190735.000,A,3503.9003,N,07658.0641,W,1.27,122.20,120816,,,A*7E
$SDDPT,2.44,0.00,100.0*56
$SDDBT,8.00,f,2.44,M,1.33,F*3D
!!VER:1.9,UID:MEGA,APX:0,APS:C,AAX:0,AAR:14.00,WSX:0,WSK:99,
$WIMWV,59.0,R,5.92,N,A*21
$SDDPT,2.47,0.00,100.0*55
$GPRMC,190737.000,A,3503.8999,N,07658.0632,W,1.41,130.67,120816,,,A*73
$S,f,2.47,M,1.35,F*39
!!VER:1.9,UID:MEGA,APX:0,APS:C,AAX:0,AAR:14.00,WSX:0,WSK:99,
$SDDPT,2.47,0.00,100.0*55
$SDDPT,2.50,0.00,100.0*53
!!VER:1.9,UID:MEGA,APX:0,APS:C,AAX:0,AAR:14.00,WSX:0,WSK:99,
$SDDPT,2.46,0.00,100.0*54
$SDDBT,8.07,f,2.46,M,1.34,F*3F
!!VER:1.9,UID:MEGA,APX:0,APS:C,AAX:0,AAR:14.00,WSX:0,WSK:99,
$WIMWV,20.0,R,4.11,N,A*25
$GPRMC,190740.000,A,3503.8986,N,07658.0624,W,1.86,146.49,120816,,,A*7C
$SDDPT,2.50,0.00,100.0*53
$SDDBT,8.20,f,2.50,M,1.36,F*3F
!!VER:1.9,UID:MEGA,APX:0,APS:C,AAX:0,AAR:14.00,WSX:0,WSK:99,
$GPRMC,190741.000,A,3503.8981,N,07658.0624,W,1.94,155.37,120816,,,A*72
$SDDPT,2.55,0.00,100.0*56
$SDDBT,8.36,f,2.55,M,1.39,F*32
$SDDPT,2.52,0.00,100.0*51
$GPGGA,190743.000,3503.8972,N,07658.0627,W,1,09,0.9,-3.8,M,-34.8,M,,0000*4C
$S26,f,2.52,M,1.37,F*3A
$SDDPT,2.56,0.00,100.0*55
!!VER:1.9,UID:MEGA,APX:0,APS:C,AAX:0,AAR:14.00,WSX:0,WSK:99,
$WIMWV,16.0,R,8.44,N,A*2C
$SDDPT,2.58,0.00,100.0*5B
!!VER:1.9,UID:MEGA,APX:0,APS:C,AAX:0,AAR:14.00,WSX:0,WSK:99,
$SDDPT,2.56,0.00,100.0*55
$SDDBT,8.40,f,2.56,M,1.40,F*3E
!!VER:1.9,UID:MEGA,APX:0,APS:C,AAX:0,AAR:14.00,WSX:0,WSK:99,
$WIMWV,30.0,R,7.96,N,A*28
$GPRMC,190746.000,A,3503.8958,N,07658.0632,W,1.29,187.04,120816,,,A*7F
$SDDPT,2.61,0.00,100.0*51
$SDDBT,8.56,f,2.61,M,1.42,F*3F
$SDDPT,2.55,0.00,100.0*56
$SDDBT,8.36,f,2.55,M,1.39,F*32
!!VER:1.9,UID:MEGA,APX:0,APS:C,AAX:0,AAR:14.00,WSX:0,WSK:99,
$SDDPT,2.64,0.00,100.0*54
$SDDBT,8.66,f,2.64,M,1.44,F*3F
$GPRMC,190749.000,A,3503.8947,N,07658.0638,W,1.39,197.80,120816,,,A*78
$SDDPT,2.59,0.00,100.0*5A
$SDDBT,8.49,f,2.59,M,1.41,F*39
$SDDPT,2.59,0.00,100.0*5A
!!VER:1.9,UID:MEGA,APX:0,APS:C,AAX:0,AAR:14.00,WSX:0,WSK:99,
$WIMWV,18.0,R,5.67,N,A*2E
$SDDBT,8.49,f,2.59,M,1.41,F*39
!!VER:1.9,UID:MEGA,APX:0,APS:C,AAX:0,AAR:14.00,WSX:0,WSK:99,
$SDDPT,2.58,0.00,100.0*5B
$SDDBT,8.46,f,2.58,M,1.41,F*37
$GPRMC,190752.000,A,3503.8936,N,07658.0643,W,1.53,198.05,120816,,,A*76
$SDDPT,2.59,0.00,100.0*5A
$SDDBT,8.49,f,2.59,M,1.41,F*39
$SDDPT,2.58,0.00,100.0*5B
!!VER:1.9,UID:MEGA,APX:0,APS:C,AAX:0,AAR:14.00,WSX:0,WSK:99,
$WIMWV,38.0,R,5.55,N,A*2D
$SDDBT,8.46,f,2.58,M,1.41,F*37
!!VER:1.9,UID:MEGA,APX:0,APS:C,AAX:0,AAR:14.00,WSX:0,WSK:99,
$SDDPT,2.59,0.00,100.0*5A
$SDDBT,8.49,f,2.59,M,1.41,F*39
!!VER:1.9,UID:MEGA,APX:0,APS:C,AAX:0,AAR:14.00,WSX:0,WSK:99,
$SDDPT,2.62,0.00,100.0*52
$SDDBT,8.59,f,2.62,M,1.43,F*32
!!VER:1.9,UID:MEGA,APX:0,APS:C,AAX:0,AAR:14.00,WSX:0,WSK:99,
$WIMWV,44.0,R,7.58,N,A*29
$GPRMC,190756.000,A,3503.8914,N,07658.0653,W,1.73,197.53,120816,,,A*7D
$SDDPT,2.61,0.00,100.0*51
$SDDBT,8.56,f,2.61,M,1.42,F*3F
!!VER:1.9,UID:MEGA,APX:0,APS:C,AAX:0,AAR:14.00,WSX:0,WSK:99,
$GPRMC,190757.000,A,3503.8907,N,07658.0654,W,1.73,195.10,120816,,,A*7C
$SDDPT,2.65,0.00,100.0*55
$SDDBT,8.69,f,2.65,M,1.44,F*31
$SDDPT,2.67,0.00,100.0*57
$GPRMC,190759.000,A,3503.8898,N,07658.0658,W,1.63,194.40,120816,,,A*7C
$S46,F*3F
$SDDPT,2.67,0.00,100.0*57
$SDDPT,2.61,0.00,100.0*51
$GPRMC,190801.000,A,3503.8886,N,07658.0660,W,1.76,191.07,120816,,,A*78
$SDDPT,2.62,0.00,100.0*52
$SDDBT,8.59,f,2.62,M,1.43,F*32
$SDDPT,2.61,0.00,100.0*51
$SDDBT,8.56,f,2.61,M,1.42,F*3F
!!VER:1.9,UID:MEGA,APX:0,APS:C,AAX:0,AAR:14.00,WSX:0,WSK:99,
$SDDPT,2.62,0.00,100.0*52
$SDDBT,8.59,f,2.62,M,1.43,F*32
$GPRMC,190804.000,A,3503.8870,N,07658.0661,W,1.79,188.15,120816,,,A*71
$SDDPT,2.61,0.00,100.0*51
$SDDBT,8.56,f,2.61,M,1.42,F*3F
$SDDPT,2.61,0.00,100.0*51
!!VER:1.9,UID:MEGA,APX:0,APS:C,AAX:0,AAR:14.00,WSX:0,WSK:99,
$WIMWV,37.0,R,5.06,N,A*24
$SDDBT,8.56,f,2.61,M,1.42,F*3F
$GPRMC,190806.000,A,3503.8861,N,07658.0660,W,1.86,184.61,120816,,,A*7D
$SDDPT,2.61,0.00,100.0*51
$SDDBT,8.56,f,2.61,M,1.42,F*3F
$SDDPT,2.61,0.00,100.0*51
$SDDBT,8.56,f,2.61,M,1.42,F*3F
$SDDPT,2.62,0.00,100.0*52
!!VER:1.9,UID:MEGA,APX:0,APS:C,AAX:0,AAR:14.00,WSX:0,WSK:99,
$WIMWV,27.0,R,7.71,N,A*27
$SDDBT,8.59,f,2.62,M,1.43,F*32
$GPRMC,190809.000,A,3503.8846,N,07658.0661,W,1.75,182.78,120816,,,A*74
$SDDPT,2.64,0.00,100.0*54
$SDDBT,8.66,f,2.64,M,1.44,F*3F
!!VER:1.9,UID:MEGA,APX:0,APS:C,AAX:0,AAR:14.00,WSX:0,WSK:99,
$WIMWV,26.0,R,8.02,N,A*2D
$SDDPT,2.67,0.00,100.0*57
$GPRMC,190811.000,A,3503.8839,N,07658.0659,W,1.60,176.83,120816,,,A*75
$SDDBT,8.76,f,2.67,M,1.46,F*3F
$SDDPT,2.67,0.00,100.0*57
$SDDPT,2.67,0.00,100.0*57
$SDDBT,8.76,f,2.67,M,1.46,F*3F
$SDDPT,2.62,0.00,100.0*52
$SDDBT,8.59,f,2.62,M,1.43,F*32
!!VER:1.9,UID:MEGA,APX:0,APS:C,AAX:0,AAR:14.00,WSX:0,WSK:99,
$SDDPT,2.65,0.00,100.0*55
$SDDBT,8.69,f,2.65,M,1.44,F*31
$GPRMC,190815.000,A,3503.8820,N,07658.0652,W,1.90,172.17,120816,,,A*74
$SDDPT,2.62,0.00,100.0*52
$SDDBT,8.59,f,2.62,M,1.43,F*32
$SDDPT,2.58,0.00,100.0*5B
!!VER:1.9,UID:MEGA,APX:0,APS:C,AAX:0,AAR:14.00,WSX:0,WSK:99,
$WIMWV,41.0,R,8.74,N,A*2D
$SDDBT,8.46,f,2.58,M,1.41,F*37
$GPRMC,190817.000,A,3503.8811,N,07658.0650,W,1.74,172.16,120816,,,A*7D
$SDDPT,2.61,0.00,100.0*51
$SDDBT,8.56,f,2.61,M,1.42,F*3F
!!VER:1.9,UID:MEGA,APX:0,APS:C,AAX:0,AAR:14.00,WSX:0,WSK:99,
$WIMWV,32.0,R,8.34,N,A*2D
$SDDPT,2.59,0.00,100.0*5A
$SDDBT,8.49,f,2.59,M,1.41,F*39
$SDDPT,2.64,0.00,100.0*54
!!VER:1.9,UID:MEGA,APX:0,APS:C,AAX:0,AAR:14.00,WSX:0,WSK:99,
$WIMWV,25.0,R,8.19,N,A*24
$SDDBT,8.66,f,2.64,M,1.44,F*3F
$GPRMC,190820.000,A,3503.8791,N,07658.0647,W,2.30,174.81,120816,,,A*73
$SDDPT,2.65,0.00,100.0*55
$SDDBT,8.69,f,2.65,M,1.44,F*31
!!VER:1.9,UID:MEGA,APX:0,APS:C,AAX:0,AAR:14.00,WSX:0,WSK:99,
$WIMWV,16.0,R,7.16,N,A*24
$SDDPT,2.68,0.00,100.0*58
$GPRMC,190822.000,A,3503.8779,N,07658.0644,W,1.91,178.24,120816,,,A*7F
$SDDBT,8.79,f,2.68,M,1.46,F*3F
$SDDPT,2.65,0.00,100.0*55
$SDDPT,2.62,0.00,100.0*52
$SDDBT,8.59,f,2.62,M,1.43,F*32
$SDDPT,2.65,0.00,100.0*55
!!VER:1.9,UID:MEGA,APX:0,APS:C,AAX:0,AAR:14.00,WSX:0,WSK:99,
$WIMWV,15.0,R,8.57,N,A*2D
$SDDBT,8.69,f,2.65,M,1.44,F*31
!!VER:1.9,UID:MEGA,APX:0,APS:C,AAX:0,AAR:14.00,WSX:0,WSK:99,
$SDDPT,2.70,0.00,100.0*51
$SDDBT,8.85,f,2.70,M,1.47,F*34
$GPRMC,190826.000,A,3503.8755,N,07658.0647,W,2.13,191.34,120816,,,A*79
$SDDPT,2.68,0.00,100.0*58
$SDDBT,8.79,f,2.68,M,1.46,F*3F
$SDDPT,2.64,0.00,100.0*54
!!VER:1.9,UID:MEGA,APX:0,APS:C,AAX:0,AAR:14.00,WSX:0,WSK:99,
$WIMWV,8.0,R,7.23,N,A*1D
$SDDBT,8.66,f,2.64,M,1.44,F*3F
$GPGGA,190828.000,3503.8741,N,07658.0656,W,1,09,0.9,-5.3,M,-34.8,M,,0000*4B
$SDDPT,2.68,0.00,100.0*58
$SDDBT,8.79,f,2.68,M,1.46,F*3F
$SDDPT,2.62,0.00,100.0*52
$GPRMC,190830.000,A,3503.8727,N,07658.0666,W,2.36,218.66,120816,,,A*7A
$SBT,8.59,f,2.62,M,1.43,F*32
$SDDPT,2.61,0.00,100.0*51
$SDDPT,2.62,0.00,100.0*52
$SDDBT,8.59,f,2.62,M,1.43,F*32
$SDDPT,2.62,0.00,100.0*52
!!VER:1.9,UID:MEGA,APX:0,APS:C,AAX:0,AAR:14.00,WSX:0,WSK:99,
$WIMWV,348.0,R,6.64,N,A*18
$SDDBT,8.59,f,2.62,M,1.43,F*32
!!VER:1.9,UID:MEGA,APX:0,APS:C,AAX:0,AAR:14.00,WSX:0,WSK:99,
$SDDPT,2.65,0.00,100.0*55
$SDDBT,8.69,f,2.65,M,1.44,F*31
!!VER:1.9,UID:MEGA,APX:0,APS:C,AAX:0,AAR:14.00,WSX:0,WSK:99,
$SDDPT,2.70,0.00,100.0*51
$SDDBT,8.85,f,2.70,M,1.47,F*34
!!VER:1.9,UID:MEGA,APX:0,APS:C,AAX:0,AAR:14.00,WSX:0,WSK:99,
$WIMWV,335.0,R,5.90,N,A*1A
$GPRMC,190835.000,A,3503.8705,N,07658.0701,W,2.34,243.92,120816,,,A*78
$SDDPT,2.64,0.00,100.0*54
!!VER:1.9,UID:MEGA,APX:0,APS:C,AAX:0,AAR:14.00,WSX:0,WSK:99,
$WIMWV,347.0,R,5.17,N,A*10
$SDDBT,8.66,f,2.64,M,1.44,F*3F
$GPRMC,190836.000,A,3503.8702,N,07658.0709,W,2.49,249.87,120816,,,A*70
$SDDPT,2.62,0.00,100.0*52
$SDDBT,8.59,f,2.62,M,1.43,F*32
!!VER:1.9,UID:MEGA,APX:0,APS:C,AAX:0,AAR:14.00,WSX:0,WSK:99,
$WIMWV,335.0,R,4.22,N,A*12
$SDDPT,2.67,0.00,100.0*57
$SDDBT,8.76,f,2.67,M,1.46,F*3F
$SDDPT,2.67,0.00,100.0*57
!!VER:1.9,UID:MEGA,APX:0,APS:C,AAX:0,AAR:14.00,WSX:0,WSK:99,
$WIMWV,350.0,R,3.80,N,A*1E
$SDDBT,8.76,f,2.67,M,1.46,F*3F
$GPRMC,190839.000,A,3503.8696,N,07658.0740,W,2.99,254.84,120816,,,A*7C
$SDDPT,2.74,0.00,100.0*55
$SDDBT,8.99,f,2.74,M,1.49,F*33
!!VER:1.9,UID:MEGA,APX:0,APS:C,AAX:0,AAR:14.00,WSX:0,WSK:99,
$WIMWV,351.0,R,4.55,N,A*10
$SDDPT,2.74,0.00,100.0*55
$GPRMC,190841.000,A,3503.8691,N,07658.0760,W,3.23,253.91,120816,,,A*75
$SDDBT,8.99,f,2.74,M,1.49,F*33
$SDDPT,2.74,0.00,100.0*55
$SDDPT,2.74,0.00,100.0*55
$SDDBT,8.99,f,2.74,M,1.49,F*33
$SDDPT,2.71,0.00,100.0*50
!!VER:1.9,UID:MEGA,APX:0,APS:C,AAX:0,AAR:14.00,WSX:0,WSK:99,
$WIMWV,354.0,R,4.13,N,A*17
$SDDBT,8.89,f,2.71,M,1.48,F*36
$GPRMC,190844.000,A,3503.8684,N,07658.0793,W,3.56,254.93,120816,,,A*7F
$SDDPT,2.73,0.00,100.0*52
$SDDBT,8.95,f,2.73,M,1.49,F*38
!!VER:1.9,UID:MEGA,APX:0,APS:C,AAX:0,AAR:14.00,WSX:0,WSK:99,
$WIMWV,339.0,R,7.56,N,A*1E
$SDDPT,2.79,0.00,100.0*58
$SDDBT,9.15,f,2.79,M,1.52,F*31
$SDDPT,2.77,0.00,100.0*56
!!VER:1.9,UID:MEGA,APX:0,APS:C,AAX:0,AAR:14.00,WSX:0,WSK:99,
$WIMWV,334.0,R,8.71,N,A*19
$SDDBT,9.08,f,2.77,M,1.51,F*30
$GPRMC,190847.000,A,3503.8678,N,07658.0828,W,3.46,258.17,120816,,,A*71
$SDDPT,2.85,0.00,100.0*5B
$SDDBT,9.35,f,2.85,M,1.55,F*37
!!VER:1.9,UID:MEGA,APX:0,APS:C,AAX:0,AAR:14.00,WSX:0,WSK:99,
$WIMWV,339.0,R,8.53,N,A*14
$SDDPT,2.82,0.00,100.0*5C
$GPRMC,190849.000,A,3503.8674,N,07658.0852,W,3.69,258.42,120816,,,A*73
$SDDBT,9.25,f,2.82,M,1.54,F*30
$SDDPT,2.86,0.00,100.0*58
$SDDPT,2.86,0.00,100.0*58
$SDDBT,9.38,f,2.86,M,1.56,F*3A
$SDDPT,2.88,0.00,100.0*56
$SDDBT,9.45,f,2.88,M,1.57,F*3F
!!VER:1.9,UID:MEGA,APX:0,APS:C,AAX:0,AAR:14.00,WSX:0,WSK:99,
$SDDPT,2.88,0.00,100.0*56
$SDDBT,9.45,f,2.88,M,1.57,F*3F
$GPGGA,190853.000,3503.8672,N,07658.0902,W,1,09,0.9,-6.5,M,-34.8,M,,0000*4D
$SDDPT,2.83,0.00,100.0*5D
$GPGSA,A,3,06,19,17,02,12,28,03,09,24,,,,1.5,0.9,1.1*30
$SDDBT,9.28,f,2.83,M,1.54,F*3C
$SDDPT,2.80,0.00,100.0*5E
$SDDPT,2.80,0.00,100.0*5E
!!VER:1.9,UID:MEGA,APX:0,APS:C,AAX:0,AAR:14.00,WSX:0,WSK:99,
$WIMWV,334.0,R,5.36,N,A*17
$SDDBT,9.18,f,2.80,M,1.53,F*3B
$GPRMC,190856.000,A,3503.8666,N,07658.0940,W,3.94,259.27,120816,,,A*7C
$SDDPT,2.76,0.00,100.0*57
$SDDBT,9.05,f,2.76,M,1.50,F*3D
!!VER:1.9,UID:MEGA,APX:0,APS:C,AAX:0,AAR:14.00,WSX:0,WSK:99,
$WIMWV,338.0,R,6.40,N,A*19
$SDDPT,2.67,0.00,100.0*57
$GPGGA,190858.000,3503.8663,N,07658.0968,W,1,09,0.9,-6.4,M,-34.8,M,,0000*4B
$SDDBT,8.76,f,2.67,M,1.46,F*3F
$SDDPT,2.64,0.00,100.0*54
!!VER:1.9,UID:MEGA,APX:0,APS:C,AAX:0,AAR:14.00,WSX:0,WSK:99,
$WIMWV,336.0,R,8.71,N,A*1B
$SDDPT,2.59,0.00,100.0*5A
$GPRMC,190900.000,A,3503.8658,N,07658.0996,W,4.26,259.97,120816,,,A*7D
$SDDBT,8.49,f,2.59,M,1.41,F*39
!!VER:1.9,UID:MEGA,APX:0,APS:C,AAX:0,AAR:14.00,WSX:0,WSK:99,
$SDDPT,2.56,0.00,100.0*55
$SDDPT,2.53,0.00,100.0*50
$SDDBT,8.30,f,2.53,M,1.38,F*33
$SDDPT,2.61,0.00,100.0*51
$SDDBT,8.56,f,2.61,M,1.42,F*3F
!!VER:1.9,UID:MEGA,APX:0,APS:C,AAX:0,AAR:14.00,WSX:0,WSK:99,
$SDDPT,2.59,0.00,100.0*5A
$SDDBT,8.49,f,2.59,M,1.41,F*39
!!VER:1.9,UID:MEGA,APX:0,APS:C,AAX:0,AAR:14.00,WSX:0,WSK:99,
$GPRMC,190904.000,A,3503.8644,N,07658.1052,W,4.18,256.32,120816,,,A*79
$SDDPT,2.61,0.00,100.0*51
$SDDBT,8.56,f,2.61,M,1.42,F*3F
$SDDPT,2.58,0.00,100.0*5B
!!VER:1.9,UID:MEGA,APX:0,APS:C,AAX:0,AAR:14.00,WSX:0,WSK:99,
$WIMWV,348.0,R,5.71,N,A*1F
$SDDBT,8.46,f,2.58,M,1.41,F*37
$GPRMC,190906.000,A,3503.8640,N,07658.1081,W,4.19,257.78,120816,,,A*7F
$SDDPT,2.56,0.00,100.0*55
$SDDBT,8.40,f,2.56,M,1.40,F*3E
$SDDPT,2.61,0.00,100.0*51
$SDDBT,8.56,f,2.61,M,1.42,F*3F
$SDDPT,2.65,0.00,100.0*55
!!VER:1.9,UID:MEGA,APX:0,APS:C,AAX:0,AAR:14.00,WSX:0,WSK:99,
$WIMWV,4.0,R,4.42,N,A*15
$SDDBT,8.69,f,2.65,M,1.44,F*31
$GPRMC,190909.000,A,3503.8632,N,07658.1123,W,4.37,256.18,120816,,,A*77
$SDDPT,2.80,0.00,100.0*5E
$SDDBT,9.18,f,2.80,M,1.53,F*3B
!!VER:1.9,UID:MEGA,APX:0,APS:C,AAX:0,AAR:14.00,WSX:0,WSK:99,
$WIMWV,14.0,R,3.73,N,A*21
$SDDPT,2.86,0.00,100.0*58
$GPRMC,190911.000,A,3503.8630,N,07658.1154,W,4.22,259.08,120816,,,A*76
$SDDBT,9.38,f,2.86,M,1.56,F*3A
$SDDPT,2.86,0.00,100.0*58
$SDDPT,2.86,0.00,100.0*58
$SDDBT,9.38,f,2.86,M,1.56,F*3A
$SDDPT,2.83,0.00,100.0*5D
!!VER:1.9,UID:MEGA,APX:0,APS:C,AAX:0,AAR:14.00,WSX:0,WSK:99,
$WIMWV,5.0,R,3.19,N,A*1D
$SDDBT,9.28,f,2.83,M,1.54,F*3C
$VWVHW,,T,,M,2.90,N,5.36,K*5F
$SDDPT,2.85,0.00,100.0*5B
!!VER:1.9,UID:MEGA,APX:0,APS:C,AAX:0,AAR:14.00,WSX:0,WSK:99,
$SDDBT,9.35,f,2.85,M,1.55,F*37
!!VER:1.9,UID:MEGA,APX:0,APS:C,AAX:0,AAR:14.00,WSX:0,WSK:99,
$GPRMC,190915.000,A,3503.8640,N,07658.1212,W,3.89,276.99,120816,,,A*77
$VWVHW,,T,,M,2.94,N,5.43,K*59
$SDDPT,2.91,0.00,100.0*5E
$SDDPT,2.91,0.00,100.0*5E
$GPRMC,190917.000,A,3503.8651,N,07658.1233,W,3.33,287.04,120816,,,A*7D
$SDD,3.10,N,5.73,K*57
$SDDPT,3.06,0.00,100.0*51
$SDDPT,3.33,0.00,100.0*57
!!VER:1.9,UID:MEGA,APX:0,APS:C,AAX:0,AAR:14.00,WSX:0,WSK:99,
$SDDPT,3.48,0.00,100.0*5B
$SDDBT,11.41,f,3.48,M,1.90,F*04
!!VER:1.9,UID:MEGA,APX:0,APS:C,AAX:0,AAR:14.00,WSX:0,WSK:99,
$WIMWV,21.0,R,1.88,N,A*21
$VWVHW,,T,,M,2.98,N,5.51,K*56
$VWVLW,,N,,N*4C
$SDDPT,3.37,0.00,100.0*53
$SDDBT,11.05,f,3.37,M,1.84,F*09
!!VER:1.9,UID:MEGA,APX:0,APS:C,AAX:0,AAR:14.00,WSX:0,WSK:99,
$SDDPT,3.04,0.00,100.0*53
$SDDBT,9.97,f,3.04,M,1.66,F*37
$VWVHW,,T,,M,2.98,N,5.51,K*56
$GPRMC,190922.000,A,3503.8694,N,07658.1268,W,3.52,328.88,120816,,,A*7B
$VWVLW,,N,,N*4C
$SDDPT,2.82,0.00,100.0*5C
$SDDPT,2.74,0.00,100.0*55
!!VER:1.9,UID:MEGA,APX:0,APS:C,AAX:0,AAR:14.00,WSX:0,WSK:99,
$SDDPT,2.67,0.00,100.0*57
$SDDBT,8.76,f,2.67,M,1.46,F*3F
$VWVHW,,T,,M,3.00,N,5.55,K*52
$VWVLW,,N,,N*4C
!!VER:1.9,UID:MEGA,APX:0,APS:C,AAX:0,AAR:14.00,WSX:0,WSK:99,
$SDDPT,2.68,0.00,100.0*58
$SDDBT,8.79,f,2.68,M,1.46,F*3F
$VWVHW,,T,,M,3.06,N,5.66,K*54
$SDDPT,2.71,0.00,100.0*50
!!VER:1.9,UID:MEGA,APX:0,APS:C,AAX:0,AAR:14.00,WSX:0,WSK:99,
$WIMWV,12.0,R,1.05,N,A*24
$SDDBT,8.89,f,2.71,M,1.48,F*36
$GPRMC,190927.000,A,3503.8758,N,07658.1291,W,3.80,336.85,120816,,,A*74
$VWVHW,,T,,M,3.10,N,5.73,K*57
$SDDPT,2.56,0.00,100.0*55
!!VER:1.9,UID:MEGA,APX:0,APS:C,AAX:0,AAR:14.00,WSX:0,WSK:99,
$WIMWV,340.0,R,0.78,N,A*1B
$SDDPT,2.50,0.00,100.0*53
$GPRMC,190929.000,A,3503.8777,N,07658.1304,W,3.78,330.00,120816,,,A*76
$SDD2.50,M,1.36,F*3F
!!VER:1.9,UID:MEGA,APX:0,APS:C,AAX:0,AAR:14.00,WSX:0,WSK:99,
$SDDPT,2.38,0.00,100.0*5D
$SDDPT,2.37,0.00,100.0*52
$SDDBT,7.77,f,2.37,M,1.29,F*3,
!!VER:1.9,UID:MEGA,APX:0,APS:C,AAX:0,AAR:14.00,WSX:0,WSK:99,
$SDDBT,7.77,f,2.37,M,1.29,F*3,
$SDDBT,7.77,f,2.37,M,1.29,F*3,
$SDDBT,7.77,f,2.37,M,1.29,F*3,
$SDDBT,7.77,f,2.37,M,1.29,F*3,
$SDDPT,2.61,0.00,100.0*51
!!VER:1.9,UID:MEGA,APX:0,APS:C,AAX:0,AAR:14.00,WSX:0,WSK:99,
$GPGSA,A,3,06,19,17,02,12,28,03,09,24,,,,1.5,0.9,1.1*30
$SDDBT,8.56,f,2.61,M,1.42,F*3F
$SDDPT,2.07,0.00,100.0*51
$SDDPT,2.05,0.00,100.0*53
$SDDBT,6.72,f,2.05,M,1.12,F*30
$SDDPT,1.98,0.00,100.0*54
$SDDBT,6.49,f,1.98,M,1.08,F*34
$VWVHW,,T,,M,3.00,N,5.55,K*52
$SDDPT,1.96,0.00,100.0*5A
$SDDBT,6.43,f,1.96,M,1.07,F*3F
!!VER:1.9,UID:MEGA,APX:0,APS:C,AAX:0,AAR:14.00,WSX:0,WSK:99,
$GPRMC,190937.000,A,3503.8823,N,07658.1393,W,3.83,285.21,120816,,,A*71
$VWVHW,,T,,M,3.06,N,5.66,K*54
$SDDPT,1.96,0.00,100.0*5A
!!VER:1.9,UID:MEGA,APX:0,APS:C,AAX:0,AAR:14.00,WSX:0,WSK:99,
$SDDPT,1.92,0.00,100.0*5E
$GPRMC,190939.000,A,3503.8828,N,07658.1421,W,3.93,281.12,120816,,,A*7F
$SDDPT,1.92,0.00,100.0*5E
$SDDPT,1.89,0.00,100.0*54
$SDDBT,6.20,f,1.89,M,1.03,F*30
$VWVHW,,T,,M,3.08,N,5.69,K*55
$SDDPT,1.87,0.00,100.0*5A
!!VER:1.9,UID:MEGA,APX:0,APS:C,AAX:0,AAR:14.00,WSX:0,WSK:99,
$WIMWV,320.0,R,9.87,N,A*14
$SDDBT,6.13,f,1.87,M,1.02,F*3F
$GPRMC,190942.000,A,3503.8836,N,07658.1462,W,3.98,276.81,120816,,,A*72
$VWVHW,,T,,M,3.12,N,5.77,K*51
$SDDPT,1.84,0.00,100.0*59
!!VER:1.9,UID:MEGA,APX:0,APS:C,AAX:0,AAR:14.00,WSX:0,WSK:99,
$WIMWV,320.0,R,9.53,N,A*1D
$SDDPT,1.84,0.00,100.0*59
$GPRMC,190944.000,A,3503.8840,N,07658.1489,W,4.08,277.64,120816,,,A*74
$SDD03,f,1.84,M,1.00,F*3F
!!VER:1.9,UID:MEGA,APX:0,APS:C,AAX:0,AAR:14.00,WSX:0,WSK:99,
$SDDPT,1.80,0.00,100.0*5D
$SDDPT,1.80,0.00,100.0*5D
!!VER:1.9,UID:MEGA,APX:0,APS:C,AAX:0,AAR:14.00,WSX:0,WSK:99,
$SDDPT,1.77,0.00,100.0*55
$SDDBT,5.80,f,1.77,M,0.96,F*35
$VWVHW,,T,,M,3.16,N,5.84,K*59
$VWVLW,,N,,N*4C
!!VER:1.9,UID:MEGA,APX:0,APS:C,AAX:0,AAR:14.00,WSX:0,WSK:99,
$SDDPT,1.77,0.00,100.0*55
$SDDBT,5.80,f,1.77,M,0.96,F*35
$VWVHW,,T,,M,3.18,N,5.88,K*5B
$VWVHW,,T,,M,3.18,N,5.88,K*5B
!!VER:1.9,UID:MEGA,APX:0,APS:C,AAX:0,AAR:14.00,WSX:0,WSK:99,
$WIMWV,318.0,R,10.79,N,A*26
$VWVHW,,T,,M,3.18,N,5.88,K*5B
$GPRMC,190949.000,A,3503.8846,N,07658.1557,W,4.03,272.77,120816,,,A*71
$VWVHW,,T,,M,3.18,N,5.88,K*5B
$VWVHW,,T,,M,3.18,N,5.88,K*5B
$VWVHW,,T,,M,3.18,N,5.88,K*5B
!!VER:1.9,UID:MEGA,APX:0,APS:C,AAX:0,AAR:14.00,WSX:0,WSK:99,
$GPRMC,190951.000,A,3503.8848,N,07658.1584,W,3.95,272.30,120816,,,A*73
$VWVHW,,T,,M,3.18,N,5.88,K*5B
$VWVHW,,T,,M,3.18,N,5.88,K*5B
$VWVHW,,T,,M,3.18,N,5.88,K*5B
$VWVHW,,T,,M,3.18,N,5.88,K*5B
!!VER:1.9,UID:MEGA,APX:0,APS:C,AAX:0,AAR:14.00,WSX:0,WSK:99,
$WIMWV,318.0,R,9.49,N,A*1D
$VWVHW,,T,,M,3.18,N,5.88,K*5B
$VWVHW,,T,,M,3.18,N,5.88,K*5B
$SDDPT,1.77,0.00,100.0*55
$VWVLW,,N,,N*4C
!!VER:1.9,UID:MEGA,APX:0,APS:C,AAX:0,AAR:14.00,WSX:0,WSK:99,
$SDDPT,1.72,0.00,100.0*50
$SDDBT,5.64,f,1.72,M,0.94,F*38
$VWVHW,,T,,M,3.14,N,5.80,K*5F
!!VER:1.9,UID:MEGA,APX:0,APS:C,AAX:0,AAR:14.00,WSX:0,WSK:99,
$VWVLW,,N,,N*4C
$SDDPT,1.75,0.00,100.0*57
$SDDBT,5.74,f,1.75,M,0.95,F*3F
!!VER:1.9,UID:MEGA,APX:0,APS:C,AAX:0,AAR:14.00,WSX:0,WSK:99,
$GPRMC,190957.000,A,3503.8855,N,07658.1662,W,4.00,271.75,120816,,,A*7B
$VWVHW,,T,,M,3.16,N,5.84,K*59
$SDDPT,1.77,0.00,100.0*55
$SDDPT,1.77,0.00,100.0*55
!!VER:1.9,UID:MEGA,APX:0,APS:C,AAX:0,AAR:14.00,WSX:0,WSK:99,
$GPRMC,190959.000,A,3503.8856,N,07658.1688,W,4.01,270.00,120816,,,A*70
$SDD4,K*59
!!VER:1.9,UID:MEGA,APX:0,APS:C,AAX:0,AAR:14.00,WSX:0,WSK:99,
$VWVLW,,N,,N*4C
$SDDPT,1.77,0.00,100.0*55
!!VER:1.9,UID:MEGA,APX:0,APS:C,AAX:0,AAR:14.00,WSX:0,WSK:99,
$WIMWV,316.0,R,10.77,N,A*26
$SDDPT,1.77,0.00,100.0*55
$GPRMC,191001.000,A,3503.8857,N,07658.1715,W,4.04,269.09,120816,,,A*75
$S7,M,0.96,F*35
$SDDPT,1.75,0.00,100.0*57
$SDDPT,1.77,0.00,100.0*55
$SDDBT,5.80,f,1.77,M,0.96,F*33
!!VER:1.9,UID:MEGA,APX:0,APS:C,AAX:0,AAR:14.00,WSX:0,WSK:99,
$GPGGA,191003.000,3503.8856,N,07658.1742,W,1,09,0.9,-6.4,M,-34.8,M,,0000*43
$SDDBT,5.80,f,1.77,M,0.96,F*33
$SDDBT,5.80,f,1.77,M,0.96,F*33
$SDDBT,5.80,f,1.77,M,0.96,F*33
$SDDBT,5.80,f,1.77,M,0.96,F*33
!!VER:1.9,UID:MEGA,APX:0,APS:C,AAX:0,AAR:14.00,WSX:0,WSK:99,
$WIMWV,314.0,R,9.11,N,A*1C
$SDDBT,5.80,f,1.77,M,0.96,F*33
$SDDBT,5.80,f,1.77,M,0.96,F*33
$SDDBT,5.80,f,1.77,M,0.96,F*33
$SDDBT,5.80,f,1.77,M,0.96,F*33
$SDDBT,5.80,f,1.77,M,0.96,F*33
!!VER:1.9,UID:MEGA,APX:0,APS:C,AAX:0,AAR:14.00,WSX:0,WSK:99,
$WIMWV,314.0,R,8.74,N,A*1E
$SDDBT,5.80,f,1.77,M,0.96,F*33
$SDDBT,5.80,f,1.77,M,0.96,F*33
$SDDBT,5.80,f,1.77,M,0.96,F*33
$SDDBT,5.80,f,1.77,M,0.96,F*33
$SDDBT,5.80,f,1.77,M,0.96,F*33
!!VER:1.9,UID:MEGA,APX:0,APS:C,AAX:0,AAR:14.00,WSX:0,WSK:99,
$WIMWV,316.0,R,9.82,N,A*14
$SDDBT,5.80,f,1.77,M,0.96,F*33
$SDDPT,1.80,0.00,100.0*5D
$SDDPT,1.89,0.00,100.0*54
!!VER:1.9,UID:MEGA,APX:0,APS:C,AAX:0,AAR:14.00,WSX:0,WSK:99,
$SDDBT,6.20,f,1,F*30
$GPRMC,191011.000,A,3503.8848,N,07658.1857,W,4.27,262.66,120816,,,A*70
$VWVHW,,T,,M,3.22,N,5.95,K*5E
!!VER:1.9,UID:MEGA,APX:0,APS:C,AAX:0,AAR:14.00,WSX:0,WSK:99,
$SDDPT,1.83,0.00,100.0*5E
$SDDBT,6.00,f,1.83,M,1.00,F*3B
$VWVHW,,T,,M,3.22,N,5.95,K*5E
$SDDPT,1.83,0.00,100.0*5E
!!VER:1.9,UID:MEGA,APX:0,APS:C,AAX:0,AAR:14.00,WSX:0,WSK:99,
$WIMWV,317.0,R,10.24,N,A*21
$SDDBT,6.00,f,1.83,M,1.00,F*3B
$VWVHW,,T,,M,3.22,N,5.95,K*5E
$SDDPT,1.80,0.00,100.0*5D
$SDDBT,5.90,f,1.80,M,0.98,F*32
$VWVLW,,N,,N*4C
$SDDPT,1.83,0.00,100.0*5E
$SDDBT,6.00,f,1.83,M,1.00,F*3B
!!VER:1.9,UID:MEGA,APX:0,APS:C,AAX:0,AAR:14.00,WSX:0,WSK:99,
$GPRMC,191016.000,A,3503.8841,N,07658.1931,W,4.37,263.12,120816,,,A*7C
$VWVLW,,N,,N*4C
$SDDPT,1.84,0.00,100.0*59
$SDDPT,1.81,0.00,100.0*5C
$GPRMC,191018.000,A,3503.8839,N,07658.1957,W,4.15,263.34,120816,,,A*79
$SDDPT,1.77,0.00,100.0*55
$SDDBT,5.80,f,1.77,M,0.96,F*35
$SDDPT,1.83,0.00,100.0*5E
$SDDBT,6.00,f,1.83,M,1.00,F*3B
!!VER:1.9,UID:MEGA,APX:0,APS:C,AAX:0,AAR:14.00,WSX:0,WSK:99,
$SDDBT,6.00,f,1.83,M,1.00,F*3B
$SDDBT,6.00,f,1.83,M,1.00,F*3B
$SDDBT,6.00,f,1.83,M,1.00,F*3B
$SDDBT,6.00,f,1.83,M,1.00,F*3B
$SDDBT,6.00,f,1.83,M,1.00,F*3B
!!VER:1.9,UID:MEGA,APX:0,APS:C,AAX:0,AAR:14.00,WSX:0,WSK:99,
$GPRMC,191022.000,A,3503.8831,N,07658.2008,W,4.13,252.25,120816,,,A*7C
$SDDBT,6.00,f,1.83,M,1.00,F*3B
$SDDBT,6.00,f,1.83,M,1.00,F*3B
$SDDBT,6.00,f,1.83,M,1.00,F*3B
!!VER:1.9,UID:MEGA,APX:0,APS:C,AAX:0,AAR:14.00,WSX:0,WSK:99,
$GPRMC,191024.000,A,3503.8822,N,07658.2033,W,4.10,247.78,120816,,,A*7F
$SDDBT,6.00,f,1.83,M,1.00,F*3B
$SDDBT,6.00,f,1.83,M,1.00,F*3B
$SDDBT,6.00,f,1.83,M,1.00,F*3B
!!VER:1.9,UID:MEGA,APX:0,APS:C,AAX:0,AAR:14.00,WSX:0,WSK:99,
$GPRMC,191026.000,A,3503.8812,N,07658.2058,W,4.08,241.78,120816,,,A*7C
$SDDBT,6.00,f,1.83,M,1.00,F*3B
$SDDPT,1.83,0.00,100.0*5E
$34,N,6.17,K*50
$GPGGA,191028.000,3503.8800,N,07658.2082,W,1,09,0.9,-6.0,M,-34.8,M,,0000*45
$SDDPT,1.98,0.00,100.0*54
!!VER:1.9,UID:MEGA,APX:0,APS:C,AAX:0,AAR:14.00,WSX:0,WSK:99,
$SDDPT,2.02,0.00,100.0*54
$SDDBT,6.62,f,2.02,M,1.10,F*34
$VWVHW,,T,,M,3.38,N,6.25,K*5D
$VWVHW,,T,,M,3.38,N,6.25,K*5D
$VWVHW,,T,,M,3.38,N,6.25,K*5D
$VWVHW,,T,,M,3.38,N,6.25,K*5D
$VWVHW,,T,,M,3.38,N,6.25,K*5D
$SDDPT,2.02,0.00,100.0*54
$SDDBT,6.62,f,2.02,M,1.10,F*34
!!VER:1.9,UID:MEGA,APX:0,APS:C,AAX:0,AAR:14.00,WSX:0,WSK:99,
$WIMWV,347.0,R,10.79,N,A*2C
$SDDPT,2.07,0.00,100.0*51
$SDDBT,6.79,f,2.07,M,1.13,F*38
$SDDPT,2.07,0.00,100.0*51
!!VER:1.9,UID:MEGA,APX:0,APS:C,AAX:0,AAR:14.00,WSX:0,WSK:99,
$WIMWV,356.0,R,10.89,N,A*23
$SDDBT,6.79,f,2.07,M,1.13,F*38
$VWVHW,,T,,M,3.32,N,6.14,K*55
$SDDPT,2.08,0.00,100.0*5E
$SDDBT,6.82,f,2.08,M,1.13,F*33
$VWVLW,,N,,N*4C
$SDDPT,2.10,0.00,100.0*57
$SDDBT,6.89,f,2.10,M,1.14,F*36
!!VER:1.9,UID:MEGA,APX:0,APS:C,AAX:0,AAR:14.00,WSX:0,WSK:99,
$GPRMC,191036.000,A,3503.8737,N,07658.2148,W,3.85,208.09,120816,,,A*7C
$VWVLW,,N,,N*4C
$SDDPT,2.08,0.00,100.0*5E
$SDDPT,2.13,0.00,100.0*54
!!VER:1.9,UID:MEGA,APX:0,APS:C,AAX:0,AAR:14.00,WSX:0,WSK:99,
$GPRMC,191038.000,A,3503.8717,N,07658.2156,W,3.86,201.28,120816,,,A*76
$SDDPT,1.95,0.00,100.0*59
$SDDBT,6.39,f,1.95,M,1.06,F*30
$SDDPT,2.04,0.00,100.0*52
$SDDBT,6.69,f,2.04,M,1.11,F*38
!!VER:1.9,UID:MEGA,APX:0,APS:C,AAX:0,AAR:14.00,WSX:0,WSK:99,
$VWVLW,,N,,N*4C
$SDDPT,2.02,0.00,100.0*54
$SDDBT,6.62,f,2.02,M,1.10,F*34
!!VER:1.9,UID:MEGA,APX:0,APS:C,AAX:0,AAR:14.00,WSX:0,WSK:99,
$GPRMC,191041.000,A,3503.8684,N,07658.2168,W,3.98,199.57,120816,,,A*7B
$VM,3.08,N,5.69,K*55
$SDDPT,2.01,0.00,100.0*57
$SDDPT,2.34,0.00,100.0*51
$GPRMC,191043.000,A,3503.8663,N,07658.2174,W,3.97,196.61,120816,,,A*78
$SDDPT,1.98,0.00,100.0*54
!!VER:1.9,UID:MEGA,APX:0,APS:C,AAX:0,AAR:14.00,WSX:0,WSK:99,
$SDDBT,6.49,f,1.98,M,1.08,F*34
$SDDPT,1.96,0.00,100.0*5A
$SDDBT,6.43,f,1.96,M,1.07,F*3F
$SDDPT,1.95,0.00,100.0*59
$SDDBT,6.39,f,1.95,M,1.06,F*30
$VWVHW,,T,,M,2.98,N,5.51,K*56
$SDDPT,1.96,0.00,100.0*5A
!!VER:1.9,UID:MEGA,APX:0,APS:C,AAX:0,AAR:14.00,WSX:0,WSK:99,
$WIMWV,14.0,R,11.02,N,A*14
$SDDBT,6.43,f,1.96,M,1.07,F*3F
$GPRMC,191047.000,A,3503.8620,N,07658.2187,W,3.93,192.14,120816,,,A*75
$VWVHW,,T,,M,3.00,N,5.55,K*52
$SDDPT,1.93,0.00,100.0*5F
!!VER:1.9,UID:MEGA,APX:0,APS:C,AAX:0,AAR:14.00,WSX:0,WSK:99,
$WIMWV,18.0,R,11.12,N,A*19
$SDDPT,1.93,0.00,100.0*5F
$GPRMC,191049.000,A,3503.8598,N,07658.2193,W,4.04,189.52,120816,,,A*7F
$SDD1.93,M,1.05,F*3F
!!VER:1.9,UID:MEGA,APX:0,APS:C,AAX:0,AAR:14.00,WSX:0,WSK:99,
$SDDPT,1.92,0.00,100.0*5E
$SDDPT,1.92,0.00,100.0*5E
$SDDBT,6.30,f,1.92,M,1.05,F*34
$SDDBT,6.30,f,1.92,M,1.05,F*34
$SDDPT,1.93,0.00,100.0*5F
$SDDBT,6.33,f,1.93,M,1.05,F*3F
$SDDPT,1.90,0.00,100.0*5C
!!VER:1.9,UID:MEGA,APX:0,APS:C,AAX:0,AAR:14.00,WSX:0,WSK:99,
$WIMWV,24.0,R,10.66,N,A*14
$SDDBT,6.23,f,1.90,M,1.03,F*3B
$GPGGA,191053.000,3503.8552,N,07658.2196,W,1,09,0.9,-7.2,M,-34.8,M,,0000*44
$VWVHW,,T,,M,3.06,N,5.66,K*54
$SDDPT,1.77,0.00,100.0*55
$SDDPT,1.93,0.00,100.0*5F
$GPRMC,191055.000,A,3503.8531,N,07658.2198,W,3.85,185.29,120816,,,A*74
$SDDPT,1.93,0.00,100.0*5F
$SDDPT,1.89,0.00,100.0*54
$SDDBT,6.20,f,1.89,M,1.03,F*30
$VWVHW,,T,,M,3.10,N,5.73,K*57
$SDDPT,1.96,0.00,100.0*5A
!!VER:1.9,UID:MEGA,APX:0,APS:C,AAX:0,AAR:14.00,WSX:0,WSK:99,
$WIMWV,22.0,R,11.62,N,A*17
$SDDBT,6.43,f,1.96,M,1.07,F*3F
$GPGGA,191058.000,3503.8499,N,07658.2201,W,1,10,0.9,-7.1,M,-34.8,M,,0000*4F
$VWVHW,,T,,M,3.08,N,5.69,K*55
$SDDPT,1.90,0.00,100.0*5C
$SDDPT,1.90,0.00,100.0*5C
$GPRMC,191100.000,A,3503.8477,N,07658.2201,W,3.81,181.97,120816,,,A*70
$SDDM,3.10,N,5.73,K*57
$SDDPT,1.90,0.00,100.0*5C
$SDDPT,1.92,0.00,100.0*5E
!!VER:1.9,UID:MEGA,APX:0,APS:C,AAX:0,AAR:14.00,WSX:0,WSK:99,
$SDDPT,1.92,0.00,100.0*5E
$SDDBT,6.30,f,1.92,M,1.05,F*3D
$VWVHW,,T,,M,3.08,N,5.69,K*55
$VWVLW,,N,,N*4C
!!VER:1.9,UID:MEGA,APX:0,APS:C,AAX:0,AAR:14.00,WSX:0,WSK:99,
$SDDPT,1.90,0.00,100.0*5C
$SDDBT,6.23,f,1.90,M,1.03,F*3B
$VWVHW,,T,,M,3.08,N,5.69,K*55
$SDDPT,1.90,0.00,100.0*5C
!!VER:1.9,UID:MEGA,APX:0,APS:C,AAX:0,AAR:14.00,WSX:0,WSK:99,
$WIMWV,33.0,R,11.77,N,A*13
$SDDBT,6.23,f,1.90,M,1.03,F*3B
$GPRMC,191105.000,A,3503.8421,N,07658.2201,W,3.77,180.03,120816,,,A*73
$VWVHW,,T,,M,3.10,N,5.73,K*57
$SDDPT,1.92,0.00,100.0*5E
!!VER:1.9,UID:MEGA,APX:0,APS:C,AAX:0,AAR:14.00,WSX:0,WSK:99,
$WIMWV,28.0,R,11.92,N,A*12
$SDDPT,1.90,0.00,100.0*5C
$GPRMC,191107.000,A,3503.8401,N,07658.2202,W,3.76,179.02,120816,,,A*76
$SDDM,1.03,F*3B
$SDDPT,1.92,0.00,100.0*5E
$SDDPT,1.92,0.00,100.0*5E
$SDDBT,6.30,f,1.92,M,1.05,F*36
!!VER:1.9,UID:MEGA,APX:0,APS:C,AAX:0,AAR:14.00,WSX:0,WSK:99,
$GPRMC,191109.000,A,3503.8380,N,07658.2203,W,3.72,180.25,120816,,,A*70
$SDDBT,6.30,f,1.92,M,1.05,F*36
$SDDBT,6.30,f,1.92,M,1.05,F*36
$SDDBT,6.30,f,1.92,M,1.05,F*36
!!VER:1.9,UID:MEGA,APX:0,APS:C,AAX:0,AAR:14.00,WSX:0,WSK:99,
$GPRMC,191111.000,A,3503.8358,N,07658.2204,W,3.68,179.82,120816,,,A*7B
$SDDBT,6.30,f,1.92,M,1.05,F*36
$SDDBT,6.30,f,1.92,M,1.05,F*36
$SDDBT,6.30,f,1.92,M,1.05,F*36
$SDDBT,6.30,f,1.92,M,1.05,F*36
!!VER:1.9,UID:MEGA,APX:0,APS:C,AAX:0,AAR:14.00,WSX:0,WSK:99,
$WIMWV,34.0,R,12.00,N,A*17
$SDDBT,6.30,f,1.92,M,1.05,F*36
$SDDBT,6.30,f,1.92,M,1.05,F*36
$SDDBT,6.30,f,1.92,M,1.05,F*36
$SDDBT,6.30,f,1.92,M,1.05,F*36
$SDDBT,6.30,f,1.92,M,1.05,F*36
!!VER:1.9,UID:MEGA,APX:0,APS:C,AAX:0,AAR:14.00,WSX:0,WSK:99,
$WIMWV,36.0,R,11.71,N,A*10
$VWVLW,,N,,N*4C
$GPRMC,191116.000,A,3503.8304,N,07658.2204,W,3.75,176.63,120816,,,A*79
$SDDPT,1.90,0.00,100.0*5C
!!VER:1.9,UID:MEGA,APX:0,APS:C,AAX:0,AAR:14.00,WSX:0,WSK:99,
$SDDPT,1.84,0.00,100.0*59
$SDDBT,6.03,f,1.84,M,1.00,F*3F
$VWVHW,,T,,M,3.16,N,5.84,K*59
!!VER:1.9,UID:MEGA,APX:0,APS:C,AAX:0,AAR:14.00,WSX:0,WSK:99,
$VWVLW,,N,,N*4C
$SDDPT,1.95,0.00,100.0*59
$SDDBT,6.39,f,1.95,M,1.06,F*30
!!VER:1.9,UID:MEGA,APX:0,APS:C,AAX:0,AAR:14.00,WSX:0,WSK:99,
$GPRMC,191119.000,A,3503.8275,N,07658.2204,W,3.92,175.31,120816,,,A*7C
$VM,3.14,N,5.80,K*5F
$SDDPT,1.95,0.00,100.0*59
!!VER:1.9,UID:MEGA,APX:0,APS:C,AAX:0,AAR:14.00,WSX:0,WSK:99,
$WIMWV,35.0,R,11.41,N,A*10
$SDDPT,1.95,0.00,100.0f,1.95,M,1.06,F*30
!!VER:1.9,UID:MEGA,APX:0,APS:C,AAX:0,AAR:14.00,WSX:0,WSK:99,
$GPRMC,191121.000,A,3503.8255,N,07658.2203,W,3.88,174.39,120816,,,A*70
$SDDPT,1.95,0.00,100.0*59
$SDDPT,1.96,0.00,100.0*5A
$SDDBT,6.43,f,HW,,T,,M,3.10,N,5.73,K*57
!!VER:1.9,UID:MEGA,APX:0,APS:C,AAX:0,AAR:14.00,WSX:0,WSK:99,
$GPGGA,191123.000,3503.8235,N,07658.2202,W,1,10,0.9,-9.1,M,-34.8,M,,0000*4F
$VWVLW,,N,,N*4C
$SDDPT,1.95,0.00,100.0*59
!!VER:1.9,UID:MEGA,APX:0,APS:C,AAX:0,AAR:14.00,WSX:0,WSK:99,
$WIMWV,38.0,R,10.81,N,A*10
$SDDPT,1.99,0.00,1.08,F*3F
$GPRMC,191125.000,A,3503.8215,N,07658.2200,W,3.92,172.96,120816,,,A*7B
$SDDPT,1.99,0.00,100.0*55
$SDDPT,1.98,0.00,100.0*54
$SDDBT,6.49,f,1.98,M,1.08,F*34
$VWVHW,,T,,M,3.14,N,5.80,K*5F
$SDDPT,1.96,0.00,100.0*5A
!!VER:1.9,UID:MEGA,APX:0,APS:C,AAX:0,AAR:14.00,WSX:0,WSK:99,
$WIMWV,37.0,R,11.23,N,A*16
$SDDBT,6.43,f,1.96,M,1.07,F*3F
$GPGGA,191128.000,3503.8182,N,07658.2195,W,1,10,0.9,-9.2,M,-34.8,M,,0000*45
$VWVHW,,T,,M,3.12,N,5.77,K*51
$SDDPT,1.96,0.00,100.0*5A
$SDDPT,1.99,0.00,100.0*55
$GPRMC,191130.000,A,3503.8161,N,07658.2191,W,4.04,171.01,120816,,,A*71
$SDDPT,2.01,0.00,100.0*57
$SDDPT,2.01,0.00,100.0*57
$SDDBT,6.59,f,2.01,M,1.09,F*37
$VWVHW,,T,,M,3.14,N,5.80,K*5F
$SDDPT,2.01,0.00,100.0*57
!!VER:1.9,UID:MEGA,APX:0,APS:C,AAX:0,AAR:14.00,WSX:0,WSK:99,
$WIMWV,37.0,R,10.52,N,A*11
$SDDBT,6.59,f,2.01,M,1.09,F*37
