$ECVTG,316.0,T,301.0,M,7.7,N,14.3,K,A*02
$PSMDCN,2*19
$ECZDA,194310,14,07,2008,,*5F
$PSMDCN,3*18
$GPGSA,A,3,32,23,25,13,08,04,06,16,07,27,20,03,1.4,0.9,1.1*35
$PSMDCN,3*18
$GPGSV,3,1,12,32,24,156,29,23,71,034,46,25,60,278,29,13,52,321,46*74
$PSMDCN,3*18
$GPGSV,3,2,12,08,08,243,22,04,13,287,25,06,08,102,26,16,38,058,43*7D
!AIVDM,1,1,,A,15Ml7W?P?wG@5BRE`tw>4?vP0L16,0*28
$PSMDCN,1*1A
$IIHDM,303,M*3C
!AIVDM,1,1,,B,15Mw0LPP3hG?PMTEagSmbwvf0@>7,0*0C
$PSMDCN,1*1A
$IIVHW,,T,303,M,06.99,N,12.61,K*67
$PSMDCN,3*18
$GPGSV,3,3,12,07,41,255,41,27,35,257,27,20,42,172,33,03,09,118,27*7E
$PSMDCN,1*1A
$IIDBT,070.0,f,021.3,M,011.6,F*10
$PSMDCN,1*1A
$IIVWR,077,L,20.5,N,10.5,M,038.0,K*41
$PSMDCN,1*1A
$IIMTW,016,C*3A
!AIVDM,1,1,,B,15Mv3S0P00G@510Ea0V@0?vN06Jd,0*34
!AIVDM,1,1,,B,15M67FO000G@00jE`@3L0S6R2H9h,0*0F
$AITXT,01,01,91,FREQ,2087,2088*57
$PSMDCN,3*18
$GPGSA,A,3,32,23,25,13,08,04,06,16,07,27,20,03,1.4,0.9,1.1*35
$PSMDCN,3*18
$GPGSV,3,1,12,32,24,156,29,23,71,034,46,25,60,278,27,13,52,321,46*7A
$PSMDCN,3*18
$GPGSV,3,2,12,08,08,243,25,04,13,287,25,06,08,102,26,16,38,058,42*7B
$PSMDCN,1*1A
$IIHDM,303,M*3C
!AIVDM,1,1,,B,15N50UgP1WG?`70Ea2r<PgvN06Jd,0*0E
$PSMDCN,1*1A
$IIVHW,,T,303,M,07.15,N,12.94,K*68
$PSMDCN,2*19
$RARSD,,,,,,,,,0.350,181.6,1.500,N,H*5E
$PSMDCN,3*18
$GPGSV,3,3,12,07,41,255,41,27,35,257,28,20,42,172,32,03,09,118,27*70
$PSMDCN,1*1A
$IIDBT,070.0,f,021.3,M,011.6,F*10
$PSMDCN,1*1A
$IIVWR,080,L,20.4,N,10.5,M,037.9,K*4E
$PSMDCN,2*19
$ECGGA,194310,3748.784,N,12226.831,W,1,06,2.0,-18.0,M,0.0,M,0.0,*4D
$PSMDCN,1*1A
$IIMTW,016,C*3A
$PSMDCN,2*19
$ECGLL,3748.784,N,12226.831,W,194310,A,A*46
!AIVDM,1,1,,A,15Mv2OPP00G?i38EWFA00?vP00Rc,0*43
$PSMDCN,2*19
$ECRMC,194310,A,3748.784,N,12226.831,W,8.0,316.0,140708,015.0,E,A*18
$PSMDCN,2*19
$ECVTG,316.0,T,301.0,M,8.0,N,14.8,K,A*01
$PSMDCN,2*19
$ECZDA,194310,14,07,2008,,*5F
$PSMDCN,3*18
$GPGSA,A,3,32,23,25,13,08,04,06,16,07,27,20,03,1.4,0.9,1.1*35
!AIVDM,1,1,,B,15MwkRUOidG?GElEa<iQk1JV06Jd,0*6D
!AIVDM,1,1,,A,15MvJw5P0NG?Us6EaDVTTOvR06Jd,0*22
!AIVDM,1,1,,B,15Mtu:0000o@05tE`?Ctn@6T06Jd,0*40
$PSMDCN,3*18
$GPGSV,3,1,12,32,24,156,29,23,71,034,46,25,60,278,31,13,52,321,46*7D
$PSMDCN,3*18
$GPGSV,3,2,12,08,08,243,24,04,13,287,24,06,08,102,26,16,38,058,40*79
!AIVDM,1,1,,A,15Mw0LPP3hG?PPTEag8UW?vj0@?A,0*47
$PSMDCN,1*1A
$IIHDM,302,M*3D
$PSMDCN,3*18
$GPGSV,3,3,12,07,41,255,40,27,35,257,29,20,42,172,31,03,09,118,27*73
$PSMDCN,1*1A
$IIVHW,,T,302,M,07.31,N,13.24,K*65
$PSMDCN,1*1A
$IIDBT,070.3,f,021.4,M,011.7,F*15
$PSMDCN,1*1A
$IIVWR,079,L,21.0,N,10.8,M,038.9,K*4F
$PSMDCN,1*1A
$IIMTW,016,C*3A
!AIVDM,1,1,,A,15N7mT0P01o@9LrEWGc:<?vV00S2,0*65
$PSMDCN,3*18
$GPGSA,A,3,32,23,25,13,08,04,06,16,07,27,20,03,1.4,0.9,1.1*35
$PSMDCN,3*18
$GPGSV,3,1,12,32,24,156,32,23,71,034,45,25,60,278,33,13,52,321,46*76
$PSMDCN,3*18
$GPGSV,3,2,12,08,08,243,24,04,13,287,23,06,08,102,29,16,38,058,44*75
$PSMDCN,1*1A
$IIHDM,302,M*3D
!AIVDM,1,1,,B,35ND4kPP@vG?ns4EaMaLvrDT011@,0*31
$PSMDCN,2*19
$RARSD,,,,,,,,,0.350,181.6,1.500,N,H*5E
$PSMDCN,1*1A
$IIVHW,,T,302,M,07.44,N,13.53,K*67
$PSMDCN,3*18
$GPGSV,3,3,12,07,41,255,41,27,35,257,27,20,42,172,32,03,09,118,26*7E
$PSMDCN,1*1A
$IIDBT,070.3,f,021.6,M,011.7,F*17
$PSMDCN,2*19
$ECGGA,194310,3748.788,N,12226.836,W,1,06,2.0,-18.0,M,0.0,M,0.0,*46
$PSMDCN,1*1A
$IIVWR,077,L,21.1,N,10.8,M,039.1,K*49
$PSMDCN,1*1A
$IIMTW,016,C*3A
$PSMDCN,2*19
$ECGLL,3748.788,N,12226.836,W,194310,A,A*4D
$PSMDCN,2*19
$ECRMC,194310,A,3748.788,N,12226.836,W,8.3,316.0,140708,015.0,E,A*10
$PSMDCN,2*19
$ECVTG,316.0,T,301.0,M,8.3,N,15.4,K,A*0F
$PSMDCN,2*19
$ECZDA,194310,14,07,2008,,*5F
$PSMDCN,3*18
$GPGSA,A,3,32,23,25,13,08,04,06,16,07,27,20,03,1.4,0.9,1.1*35
!AIVDM,1,1,,B,15NE@2POh3o?lOREd96`kR2`00S8,0*73
$PSMDCN,3*18
$GPGSV,3,1,12,32,23,156,32,23,71,034,45,25,60,278,33,13,52,321,43*74
$PSMDCN,3*18
$GPGSV,3,2,12,08,08,243,24,04,13,287,23,06,08,102,29,16,38,058,44*75
$PSMDCN,1*1A
$IIHDM,302,M*3D
$PSMDCN,1*1A
$IIVHW,,T,302,M,07.56,N,14.00,K*65
!AIVDM,1,1,,B,15Mw0LPP3iG?PSbEafeUagvn08@P,0*50
$PSMDCN,3*18
$GPGSV,3,3,12,07,41,255,41,27,35,257,36,20,42,172,35,03,09,118,29*76
$PSMDCN,1*1A
$IIDBT,071.2,f,021.7,M,011.8,F*19
!AIVDM,1,1,,A,15N85<001lo?GPhEa>0QlAJb08;o,0*0D
$PSMDCN,1*1A
$IIVWR,075,L,21.6,N,11.1,M,040.0,K*4B
$PSMDCN,1*1A
$IIMTW,016,C*3A
!AIVDM,1,1,,B,15NDS<PP0AG?cM0E`R@8EOwL0@K<,0*6A
!AIVDM,1,1,,B,15MuU00P0qG?Ml8E`gISFgvV08<6,0*67
!AIVDM,1,1,,A,15Mw0BPP1rG?WmjE`e7d8wv`0D17,0*39
$PSMDCN,3*18
$GPGSA,A,3,32,23,25,13,08,04,06,16,07,27,20,03,1.4,0.9,1.1*35
$PSMDCN,3*18
$GPGSV,3,1,12,32,23,156,30,23,71,034,46,25,60,278,32,13,52,321,44*73
$PSMDCN,3*18
$GPGSV,3,2,12,08,08,243,24,04,13,287,25,06,08,102,28,16,38,058,46*70
$PSMDCN,1*1A
$IIHDM,304,M*3B
$PSMDCN,1*1A
$IIVHW,,T,304,M,07.67,N,14.20,K*63
$PSMDCN,2*19
$RARSD,,,,,,,,,0.350,181.6,1.500,N,H*5E
$PSMDCN,3*18
$GPGSV,3,3,12,07,41,255,38,27,35,257,37,20,42,172,38,03,09,118,32*7E
$PSMDCN,1*1A
$IIDBT,071.0,f,021.6,M,011.8,F*1A
$PSMDCN,2*19
$ECGGA,194320,3748.789,N,12226.838,W,1,06,2.0,-18.0,M,0.0,M,0.0,*4A
$PSMDCN,1*1A
$IIVWR,073,L,21.6,N,11.1,M,040.0,K*4D
$PSMDCN,1*1A
$IIMTW,016,C*3A
$PSMDCN,2*19
$ECGLL,3748.791,N,12226.840,W,194320,A,A*47
!AIVDM,1,1,,B,15N00t0P1=G?rAPEa>PW7wv`0H<T,0*37
$PSMDCN,2*19
$ECRMC,194320,A,3748.791,N,12226.840,W,8.4,314.0,140708,015.0,E,A*1F
!AIVDM,1,1,,A,85PH52AKf9c>0uDM55qfJ5`u2kh4LiM33D`8laF3=TB9KPPMSKrh,0*12
$PSMDCN,2*19
$ECVTG,314.0,T,299.0,M,8.4,N,15.6,K,A*08
!AIVDM,1,1,,B,85PH52AKf9c>0uDM55qfJ5`u2kh4LiM33D`8laF3=TB9KPPMSKrh,0*11
$PSMDCN,2*19
$ECZDA,194320,14,07,2008,,*5C
$PSMDCN,3*18
$GPGSA,A,3,32,23,25,13,08,04,06,16,07,27,20,03,1.4,0.9,1.1*35
!AIVDM,1,1,,A,14VN@:001DG?QChEajPCQ2lb0d1<,0*5F
$PSMDCN,3*18
$GPGSV,3,1,12,32,23,156,33,23,71,034,45,25,60,278,32,13,52,321,45*72
!AIVDM,1,1,,A,15Mv4O0P04G?fh>E`8MoTwwH06JP,0*71
!AIVDM,1,1,,B,15Mvld000VG?`lpEcD=6u5Vb08=K,0*13
!AIVDM,1,1,,A,35ND4kPP@uG?nr4EaMldqrBb0121,0*50
$PSMDCN,3*18
$GPGSV,3,2,12,08,08,243,24,04,13,287,26,06,08,102,33,16,38,058,44*7B
$PSMDCN,1*1A
$IIHDM,306,M*39
$PSMDCN,3*18
$GPGSV,3,3,12,07,41,255,41,27,35,257,36,20,42,172,40,03,09,118,33*7F
$PSMDCN,1*1A
$IIVHW,,T,306,M,07.76,N,14.37,K*67
$PSMDCN,1*1A
$IIDBT,071.0,f,021.6,M,011.8,F*1A
$PSMDCN,1*1A
$IIVWR,075,L,20.3,N,10.4,M,037.7,K*4C
$PSMDCN,1*1A
$IIMTW,016,C*3A
$PSMDCN,3*18
$GPGSA,A,3,32,23,25,13,08,04,06,16,07,27,20,03,1.4,0.9,1.1*35
!AIVDM,1,1,,A,15MlVUgP00G?R@NEbjRP0?vb0@=H,0*42
$PSMDCN,3*18
$GPGSV,3,1,12,32,23,156,37,23,71,034,47,25,60,278,30,13,52,321,45*76
!AIVDM,1,1,,B,15MvV`0P01G?dC@E`SR`Ngvf06Jd,0*07
$PSMDCN,3*18
$GPGSV,3,2,12,08,08,243,25,04,13,287,26,06,08,102,35,16,38,058,49*71
$PSMDCN,1*1A
$IIHDM,308,M*37
$PSMDCN,1*1A
$IIVHW,,T,308,M,07.85,N,14.37,K*65
$PSMDCN,2*19
$RARSD,,,,,,,,,0.350,181.6,1.500,N,H*5E
$PSMDCN,3*18
$GPGSV,3,3,12,07,41,255,41,27,35,257,36,20,42,172,40,03,09,118,34*78
!AIVDM,1,1,,A,15MtnQ0P0aG?fq>E`<7=mgvf0<16,0*46
$PSMDCN,1*1A
$IIDBT,071.0,f,021.6,M,011.8,F*1A
$PSMDCN,2*19
$ECGGA,194320,3748.794,N,12226.844,W,1,06,2.0,-17.0,M,0.0,M,0.0,*42
!AIVDM,1,1,,A,15Mva80P0VG?Wa@EcJa`:gvf08=b,0*3F
$PSMDCN,1*1A
$IIVWR,070,L,20.1,N,10.3,M,037.3,K*48
$PSMDCN,1*1A
$IIMTW,016,C*3A
$PSMDCN,2*19
$ECGLL,3748.794,N,12226.844,W,194320,A,A*46
$PSMDCN,2*19
$ECRMC,194320,A,3748.794,N,12226.844,W,8.5,314.0,140708,015.0,E,A*1F
$PSMDCN,2*19
$ECVTG,314.0,T,299.0,M,8.5,N,15.8,K,A*07
$PSMDCN,2*19
$ECZDA,194320,14,07,2008,,*5C
$PSMDCN,3*18
$GPGSA,A,3,32,23,25,13,08,04,06,16,07,27,20,03,1.4,0.9,1.1*35
!AIVDM,1,1,,B,15N0<20001G?ncfEd884?Jnh0<16,0*2E
$PSMDCN,3*18
$GPGSV,3,1,12,32,23,156,36,23,71,034,45,25,60,278,29,13,52,321,46*7E
$PSMDCN,3*18
$GPGSV,3,2,12,08,08,243,24,04,13,287,27,06,08,102,34,16,38,058,48*71
$PSMDCN,1*1A
$IIHDM,308,M*37
!AIVDM,1,1,,B,15Mw0LPP3jG?PadEaenUdwvv08Bk,0*5B
$PSMDCN,1*1A
$IIVHW,,T,308,M,07.91,N,14.53,K*62
$PSMDCN,3*18
$GPGSV,3,3,12,07,41,255,41,27,35,257,36,20,42,172,41,03,09,118,35*78
$PSMDCN,1*1A
$IIDBT,071.0,f,021.6,M,011.8,F*1A
$PSMDCN,1*1A
$IIVWR,071,L,20.1,N,10.3,M,037.2,K*48
$PSMDCN,1*1A
$IIMTW,016,C*3A
!AIVDM,1,1,,B,15Mv2JPP00G?hoBEWF2@0?vf0@>C,0*6B
$PSMDCN,3*18
$GPGSA,A,3,32,23,25,13,08,04,06,16,07,27,20,03,1.4,0.9,1.1*35
$PSMDCN,3*18
$GPGSV,3,1,12,32,23,156,36,23,71,034,45,25,60,278,29,13,52,321,45*7D
!AIVDM,1,1,,B,15N:A<?P04G?egBE`CF2Fgvj2<19,0*52
$PSMDCN,3*18
$GPGSV,3,2,12,08,08,243,23,04,13,287,27,06,08,102,34,16,38,058,47*79
$PSMDCN,1*1A
$IIHDM,309,M*36
$PSMDCN,1*1A
$IIVHW,,T,309,M,07.98,N,14.64,K*6E
$PSMDCN,2*19
$RARSD,,,,,,,,,0.350,181.6,1.500,N,H*5E
$PSMDCN,3*18
$GPGSV,3,3,12,07,41,255,41,27,35,257,35,20,42,172,42,03,09,118,35*78
!AIVDM,1,1,,B,403Ovk1uQoCcHo>jPHEdjdW00<1P,0*54
$PSMDCN,1*1A
$IIDBT,071.0,f,021.6,M,011.8,F*1A
!AIVDM,1,1,,B,403OvkAuQoCcHo?6H<Ea1QG00D1<,0*7A
$PSMDCN,2*19
$ECGGA,194320,3748.798,N,12226.848,W,1,06,2.0,-17.0,M,0.0,M,0.0,*42
$PSMDCN,1*1A
$IIVWR,069,L,19.3,N,09.9,M,035.8,K*43
$PSMDCN,1*1A
$IIMTW,016,C*3A
$PSMDCN,2*19
$ECGLL,3748.798,N,12226.848,W,194320,A,A*46
$PSMDCN,2*19
$ECRMC,194320,A,3748.798,N,12226.848,W,8.4,315.0,140708,015.0,E,A*1F
$PSMDCN,2*19
$ECVTG,315.0,T,300.0,M,8.4,N,15.6,K,A*08
$PSMDCN,2*19
$ECZDA,194320,14,07,2008,,*5C
$PSMDCN,3*18
$GPGSA,A,3,32,23,25,13,08,04,06,16,07,27,20,03,1.4,0.9,1.1*35
$PSMDCN,3*18
$GPGSV,3,1,12,32,23,156,36,23,71,034,45,25,60,278,29,13,52,321,46*7E
$PSMDCN,3*18
$GPGSV,3,2,12,08,08,243,24,04,13,287,29,06,08,102,36,16,38,058,44*71
!AIVDM,1,1,,A,15Mw0LPP3iG?Pd`EaeJUggw20@Cs,0*49
$PSMDCN,1*1A
$IIHDM,311,M*3F
$PSMDCN,3*18
$GPGSV,3,3,12,07,41,255,42,27,35,257,35,20,42,172,42,03,09,118,36*78
$PSMDCN,1*1A
$IIVHW,,T,311,M,08.04,N,14.77,K*6F
$PSMDCN,1*1A
$IIDBT,071.0,f,021.6,M,011.8,F*1A
$PSMDCN,1*1A
$IIVWR,065,L,19.5,N,10.0,M,036.1,K*42
!AIVDM,1,1,,B,33AdmV1000G@1D`EVAlLjWjl0000,0*61
$PSMDCN,1*1A
$IIMTW,016,C*3A
!AIVDM,1,1,,A,15N50UgP1aG?WwdEa3idKwvj0D14,0*2C
$PSMDCN,3*18
$GPGSA,A,3,32,23,25,13,08,04,06,16,07,27,20,03,1.4,0.9,1.1*35
$PSMDCN,3*18
$GPGSV,3,1,12,32,23,156,29,23,71,034,43,25,60,278,29,13,52,321,45*75
$PSMDCN,3*18
$GPGSV,3,2,12,08,08,243,24,04,13,287,28,06,08,102,34,16,38,058,45*73
!AIVDM,1,1,,B,15Ml7W?P?wG@5C4E`u1v4?vn00Rg,0*33
!AIVDM,1,1,,B,15Mv2OPP00G?i38EWFA00?vj0<10,0*46
$PSMDCN,1*1A
$IIHDM,311,M*3F
$PSMDCN,1*1A
$IIVHW,,T,311,M,08.10,N,15.00,K*6B
$PSMDCN,2*19
$RARSD,,,,,,,,,0.350,181.6,1.500,N,H*5E
$PSMDCN,3*18
$GPGSV,3,3,12,07,41,255,38,27,35,257,30,20,42,172,37,03,09,118,35*71
$PSMDCN,1*1A
$IIDBT,071.0,f,021.6,M,011.8,F*1A
$PSMDCN,2*19
$ECGGA,194320,3748.802,N,12226.851,W,1,06,2.0,-17.0,M,0.0,M,0.0,*46
$PSMDCN,1*1A
$IIVWR,060,L,19.5,N,10.0,M,036.2,K*44
$PSMDCN,1*1A
$IIMTW,016,C*3A
$PSMDCN,2*19
$ECGLL,3748.802,N,12226.851,W,194320,A,A*42
$PSMDCN,2*19
$ECRMC,194320,A,3748.802,N,12226.851,W,8.4,318.0,140708,015.0,E,A*16
$PSMDCN,2*19
$ECVTG,318.0,T,303.0,M,8.4,N,15.6,K,A*06
$PSMDCN,2*19
$ECZDA,194320,14,07,2008,,*5C
$PSMDCN,3*18
$GPGSA,A,3,32,23,25,13,08,04,06,16,07,27,20,03,1.4,0.9,1.1*35
$PSMDCN,3*18
$GPGSV,3,1,12,32,23,156,31,23,71,034,44,25,60,278,31,13,52,321,45*72
$PSMDCN,3*18
$GPGSV,3,2,12,08,08,243,24,04,13,286,25,06,08,102,33,16,38,058,45*78
!AIVDM,1,1,,B,15Mw0LPP3iG?PgLEadvEkgw606Jd,0*28
$PSMDCN,1*1A
$IIHDM,310,M*3E
!AIVDM,1,1,,B,15MvJw5P0LG?UunEaDNlIwvn08@M,0*69
$PSMDCN,1*1A
$IIVHW,,T,310,M,08.16,N,15.00,K*6C
$PSMDCN,3*18
$GPGSV,3,3,12,07,41,255,39,27,35,257,31,20,42,172,35,03,09,118,35*73
$PSMDCN,1*1A
$IIDBT,072.1,f,022.0,M,012.0,F*16
$PSMDCN,1*1A
$IIVWR,056,L,19.9,N,10.2,M,036.9,K*44
$PSMDCN,1*1A
$IIMTW,016,C*3A
!AIVDM,1,1,,B,15N7mT0P01o@9LrEWGc:<?vr08@j,0*01
$PSMDCN,3*18
$GPGSA,A,3,32,23,25,13,08,04,06,16,07,27,20,03,1.4,0.9,1.1*35
$PSMDCN,3*18
$GPGSV,3,1,12,32,23,156,32,23,71,034,43,25,60,278,32,13,52,321,45*75
$PSMDCN,3*18
$GPGSV,3,2,12,08,08,243,24,04,13,286,26,06,08,102,32,16,38,058,43*7C
$PSMDCN,1*1A
$IIHDM,308,M*37
$PSMDCN,1*1A
$IIVHW,,T,308,M,08.19,N,15.11,K*6A
$PSMDCN,2*19
$RARSD,,,,,,,,,0.350,181.6,1.500,N,H*5E
$PSMDCN,3*18
$GPGSV,3,3,12,07,41,255,40,27,35,257,34,20,42,172,35,03,09,118,34*79
$PSMDCN,1*1A
$IIDBT,073.9,f,022.5,M,012.3,F*19
$PSMDCN,1*1A
$IIVWR,058,L,20.0,N,10.3,M,037.2,K*42
$PSMDCN,2*19
$ECGGA,194320,3748.806,N,12226.855,W,1,06,2.0,-17.0,M,0.0,M,0.0,*46
$PSMDCN,1*1A
$IIMTW,016,C*3A
$PSMDCN,2*19
$ECGLL,3748.806,N,12226.855,W,194320,A,A*42
!AIVDM,1,1,,B,15Ms0FP01Eo?PsBEaj=k`Bpp0@A?,0*78
$PSMDCN,2*19
$ECRMC,194320,A,3748.806,N,12226.855,W,8.4,322.0,140708,015.0,E,A*1F
$PSMDCN,2*19
$ECVTG,322.0,T,307.0,M,8.4,N,15.6,K,A*0B
$PSMDCN,2*19
$ECZDA,194320,14,07,2008,,*5C
$PSMDCN,3*18
$GPGSA,A,3,32,23,25,13,08,04,06,16,07,27,20,03,1.4,0.9,1.1*35
$PSMDCN,3*18
$GPGSV,3,1,12,32,23,156,32,23,71,034,44,25,60,278,33,13,52,321,45*73
$PSMDCN,3*18
$GPGSV,3,2,12,08,08,243,24,04,13,286,27,06,08,102,27,16,38,058,44*7E
$PSMDCN,1*1A
$IIHDM,307,M*38
$PSMDCN,3*18
$GPGSV,3,3,12,07,41,255,40,27,35,257,36,20,42,172,35,03,09,118,33*7C
$PSMDCN,1*1A
$IIVHW,,T,307,M,08.21,N,15.16,K*69
!AIVDM,1,1,,A,15Mw0LPP3hG?Pj>EadQUkgw:08FJ,0*42
$PSMDCN,1*1A
$IIDBT,074.6,f,022.7,M,012.4,F*14
$PSMDCN,1*1A
$IIVWR,058,L,20.5,N,10.5,M,038.0,K*4C
!AIVDM,1,1,,B,403OvkQuQoCcNo?UhDEf=L700<1>,0*4B
$PSMDCN,1*1A
$IIMTW,016,C*3A
!AIVDM,1,1,,A,15NDS<PP09G?cL@E`R:8`?wh0@Q6,0*7B
!AIVDM,1,1,,B,15N85<001ko?GbvEa>uil1Jv0<1E,0*18
$PSMDCN,3*18
$GPGSA,A,3,32,23,25,13,08,04,06,16,07,27,20,03,1.4,0.9,1.1*35
$PSMDCN,3*18
$GPGSV,3,1,12,32,23,156,29,23,71,034,46,25,60,278,33,13,52,321,44*7A
$PSMDCN,3*18
$GPGSV,3,2,12,08,08,243,25,04,13,286,23,06,08,102,28,16,38,058,47*77
!AIVDM,1,1,,B,15Mw0BPP1vG?WcLE`f0<7wvt08B=,0*54
$PSMDCN,1*1A
$IIHDM,306,M*39
$PSMDCN,1*1A
$IIVHW,,T,306,M,08.22,N,15.20,K*6E
$PSMDCN,2*19
$RARSD,,,,,,,,,0.350,181.6,1.500,N,H*5E
!AIVDM,1,1,,A,15MuU00P0qG?MrFE`gISIOvr0@B@,0*77
$PSMDCN,3*18
$GPGSV,3,3,12,07,41,255,40,27,35,257,35,20,42,172,40,03,09,118,32*7C
$PSMDCN,1*1A
$IIDBT,074.6,f,022.7,M,012.4,F*14
$PSMDCN,2*19
$ECGGA,194330,3748.810,N,12226.858,W,1,06,2.0,-17.0,M,0.0,M,0.0,*4D
$PSMDCN,1*1A
$IIVWR,057,L,21.0,N,10.8,M,039.0,K*4B
$PSMDCN,1*1A
$IIMTW,016,C*3A
$PSMDCN,2*19
$ECGLL,3748.810,N,12226.858,W,194330,A,A*49
!AIVDM,1,1,,B,14VN@:001DG?QK>EajNCQ2jr0d15,0*03
!AIVDM,2,1,6,A,55MlVUP00001L@7CWCLE<<50D00000000000000t10?5240Ht7P00000,0*56
!AIVDM,2,2,6,A,000000000000000,2*22
$PSMDCN,2*19
$ECRMC,194330,A,3748.810,N,12226.858,W,8.3,323.0,140708,015.0,E,A*12
$PSMDCN,2*19
$ECVTG,323.0,T,308.0,M,8.3,N,15.4,K,A*00
$PSMDCN,2*19
$ECZDA,194330,14,07,2008,,*5D
$PSMDCN,3*18
$GPGSA,A,3,32,23,25,13,08,04,06,16,07,27,20,03,1.4,0.9,1.1*35
$PSMDCN,3*18
$GPGSV,3,1,12,32,23,156,30,23,71,034,47,25,60,278,32,13,52,321,44*72
$PSMDCN,3*18
$GPGSV,3,2,12,08,08,243,25,04,13,286,23,06,08,102,27,16,38,058,43*7C
$PSMDCN,1*1A
$IIHDM,305,M*3A
$PSMDCN,1*1A
$IIVHW,,T,305,M,08.23,N,15.22,K*6E
$PSMDCN,3*18
$GPGSV,3,3,12,07,41,255,38,27,35,257,36,20,42,172,42,03,09,118,32*72
!AIVDM,1,1,,B,15Mw0LPP3hG?PlvEad55jgw>08GS,0*16
$PSMDCN,1*1A
$IIDBT,074.6,f,022.7,M,012.4,F*14
$PSMDCN,1*1A
$IIVWR,053,L,20.5,N,10.5,M,038.1,K*46
$PSMDCN,1*1A
$IIMTW,016,C*3A
!AIVDM,1,1,,A,15MvV`0P01G?dCFE`SS8Gww20D17,0*4D
$PSMDCN,3*18
$GPGSA,A,3,32,23,25,13,08,04,06,16,07,27,20,03,1.4,0.9,1.1*35
$PSMDCN,3*18
$GPGSV,3,1,12,32,23,156,32,23,71,034,47,25,60,278,30,13,52,321,44*72
!AIVDM,1,1,,B,15MlVUgP00G?R@NEbjRP0?vv0D0w,0*63
!AIVDM,1,1,,A,15N00t0P1AG?r@pEa=T7=?vv06Jd,0*62
$PSMDCN,3*18
$GPGSV,3,2,12,08,08,243,25,04,13,286,22,06,08,102,27,16,38,058,42*7C
$PSMDCN,1*1A
$IIHDM,305,M*3A
$PSMDCN,1*1A
$IIVHW,,T,305,M,08.24,N,15.24,K*6F
$PSMDCN,2*19
$RARSD,,,,,,,,,0.350,181.6,1.500,N,H*5E
$PSMDCN,3*18
$GPGSV,3,3,12,07,41,255,39,27,35,257,36,20,42,172,42,03,09,118,33*72
$PSMDCN,1*1A
$IIDBT,074.6,f,022.7,M,012.4,F*14
$PSMDCN,1*1A
$IIVWR,057,L,19.5,N,10.0,M,036.2,K*40
$PSMDCN,2*19
$ECGGA,194330,3748.813,N,12226.862,W,1,06,2.0,-17.0,M,0.0,M,0.0,*47
$PSMDCN,1*1A
$IIMTW,016,C*3A
$PSMDCN,2*19
$ECGLL,3748.813,N,12226.862,W,194330,A,A*43
$PSMDCN,2*19
$ECRMC,194330,A,3748.813,N,12226.862,W,8.2,323.0,140708,015.0,E,A*19
!AIVDM,1,1,,B,15Mva80P0VG?WWHEcJC8:?w20D12,0*55
$PSMDCN,2*19
$ECVTG,323.0,T,308.0,M,8.2,N,15.2,K,A*07
$PSMDCN,2*19
$ECZDA,194330,14,07,2008,,*5D
!AIVDM,1,1,,B,15MtnQ0P0pG?frlE`<k0cgw40<17,0*08
$PSMDCN,3*18
$GPGSA,A,3,32,23,25,13,08,04,06,16,07,27,20,03,1.4,0.9,1.1*35
$PSMDCN,3*18
$GPGSV,3,1,12,32,23,156,35,23,71,034,46,25,60,278,32,13,52,321,43*71
$PSMDCN,3*18
$GPGSV,3,2,12,08,08,243,26,04,13,286,23,06,08,102,31,16,38,058,42*79
$PSMDCN,1*1A
$IIHDM,305,M*3A
$PSMDCN,3*18
$GPGSV,3,3,12,07,42,256,39,27,35,257,37,20,42,172,42,03,09,118,32*72
$PSMDCN,1*1A
$IIVHW,,T,305,M,08.22,N,15.26,K*6B
$PSMDCN,1*1A
$IIDBT,074.6,f,022.7,M,012.4,F*14
$PSMDCN,1*1A
$IIVWR,064,L,19.4,N,10.0,M,036.0,K*43
$PSMDCN,1*1A
$IIMTW,016,C*3A
$PSMDCN,3*18
$GPGSA,A,3,32,23,25,13,08,04,06,16,07,27,20,03,1.4,0.9,1.1*35
$PSMDCN,3*18
$GPGSV,3,1,12,32,23,156,35,23,71,034,47,25,60,278,33,13,52,321,44*76
$PSMDCN,3*18
$GPGSV,3,2,12,08,08,243,27,04,13,286,00,06,08,102,31,16,38,058,43*78
$PSMDCN,1*1A
$IIHDM,305,M*3A
$PSMDCN,1*1A
$IIVHW,,T,305,M,08.21,N,15.22,K*6C
$PSMDCN,2*19
$RARSD,,,,,,,,,0.350,181.6,1.500,N,H*5E
$PSMDCN,3*18
$GPGSV,3,3,12,07,42,256,38,27,35,257,38,20,42,172,43,03,09,118,32*7D
!AIVDM,1,1,,A,15Mvht5P13G?FO>E`uoBEgw408DW,0*2A
$PSMDCN,1*1A
$IIDBT,074.5,f,022.7,M,012.4,F*17
!AIVDM,1,1,,A,403OvkAuQoCcRo?6H<Ea1QG008Db,0*34
$PSMDCN,1*1A
$IIVWR,069,L,19.1,N,09.8,M,035.5,K*4D
$PSMDCN,2*19
$ECGGA,194330,3748.816,N,12226.866,W,1,06,2.0,-17.0,M,0.0,M,0.0,*46
$PSMDCN,1*1A
$IIMTW,016,C*3A
$PSMDCN,2*19
$ECGLL,3748.816,N,12226.866,W,194330,A,A*42
$PSMDCN,2*19
$ECRMC,194330,A,3748.816,N,12226.866,W,8.1,321.0,140708,015.0,E,A*19
$PSMDCN,2*19
$ECVTG,321.0,T,306.0,M,8.1,N,15.0,K,A*0A
$PSMDCN,2*19
$ECZDA,194330,14,07,2008,,*5D
$PSMDCN,3*18
$GPGSA,A,3,32,23,25,13,08,06,16,07,27,20,03,,1.7,1.0,1.4*3F
!AIVDM,1,1,,B,15Mw0=UP12G?au:Ea2jDk?w608Dt,0*53
$PSMDCN,3*18
$GPGSV,3,1,12,32,23,156,38,23,71,034,46,25,60,278,33,13,52,321,44*7A
$PSMDCN,3*18
$GPGSV,3,2,12,08,08,243,26,06,08,102,35,16,38,058,41,07,42,256,38*7E
!AIVDM,1,1,,B,15Mw<jPP0uG@0=0E`=4:aww806Jd,0*55
$PSMDCN,1*1A
$IIHDM,306,M*39
!AIVDM,1,1,,B,15Mw0LPP3hG?PrNEac<5kOwF00S5,0*15
!AIVDM,1,1,,B,15M67FO000G@00fE`@2cwS7826Jd,0*00
$PSMDCN,3*18
$GPGSV,3,3,12,27,35,257,39,20,42,172,44,03,09,118,32,04,13,286,00*7A
$PSMDCN,1*1A
$IIVHW,,T,306,M,08.19,N,15.16,K*63
$PSMDCN,1*1A
$IIDBT,074.5,f,022.7,M,012.4,F*17
$PSMDCN,1*1A
$IIVWR,066,L,17.8,N,09.1,M,033.0,K*4F
$PSMDCN,1*1A
$IIMTW,016,C*3A
!AIVDM,1,1,,B,15MvK1PP1WG?NQLE`n4Jqgw806Jd,0*69
$PSMDCN,3*18
$GPGSA,A,3,32,23,25,13,08,06,16,07,27,20,03,,1.7,1.0,1.4*3F
$PSMDCN,3*18
$GPGSV,3,1,12,32,23,156,38,23,71,034,47,25,60,278,32,13,52,321,45*7B
$PSMDCN,3*18
$GPGSV,3,2,12,08,08,243,22,06,08,102,36,16,38,058,42,07,42,256,41*74
$PSMDCN,1*1A
$IIHDM,307,M*38
$PSMDCN,1*1A
$IIVHW,,T,307,M,08.17,N,15.16,K*6C
$PSMDCN,3*18
$GPGSV,3,3,12,27,35,257,39,20,42,172,43,03,09,118,32,04,13,286,00*7D
$PSMDCN,2*19
$RARSD,,,,,,,,,0.350,181.6,1.500,N,H*5E
$PSMDCN,1*1A
$IIDBT,074.5,f,022.7,M,012.4,F*17
$PSMDCN,1*1A
$IIVWR,066,L,18.0,N,09.2,M,033.3,K*48
$PSMDCN,2*19
$ECGGA,194330,3748.820,N,12226.869,W,1,06,2.0,-17.0,M,0.0,M,0.0,*4C
!AIVDM,1,1,,B,15N50UgP1VG?WoBEa4e<Jww806Jd,0*7E
$PSMDCN,1*1A
$IIMTW,016,C*3A
$PSMDCN,2*19
$ECGLL,3748.820,N,12226.869,W,194330,A,A*48
!AIVDM,1,1,,B,15MwkRUOieG?GVdEa>M1hQK<06Jd,0*39
$PSMDCN,2*19
$ECRMC,194330,A,3748.820,N,12226.869,W,8.0,319.0,140708,015.0,E,A*19
$PSMDCN,2*19
$ECVTG,319.0,T,304.0,M,8.0,N,14.8,K,A*0B
$PSMDCN,2*19
$ECZDA,194330,14,07,2008,,*5D
$PSMDCN,3*18
$GPGSA,A,3,32,23,25,13,08,04,06,16,07,27,20,03,1.4,0.9,1.1*35
!AIVDM,1,1,,A,15Mv2OPP00G?i38EWFA00?w80D10,0*6E
$PSMDCN,3*18
$GPGSV,3,1,12,32,23,156,36,23,71,034,46,25,60,278,28,13,52,321,46*7C
!AIVDM,1,1,,A,15Mw0LPP3hG?PuBEabgmigwJ00SC,0*4F
$PSMDCN,3*18
$GPGSV,3,2,12,08,08,243,27,04,13,286,30,06,08,102,36,16,38,058,45*7A
$PSMDCN,1*1A
$IIHDM,309,M*36
$PSMDCN,3*18
$GPGSV,3,3,12,07,42,256,42,27,35,257,37,20,42,172,42,03,09,118,33*7F
$PSMDCN,1*1A
$IIVHW,,T,309,M,08.15,N,15.13,K*65
$PSMDCN,1*1A
$IIDBT,074.5,f,022.7,M,012.4,F*17
$PSMDCN,1*1A
$IIVWR,066,L,17.6,N,09.0,M,032.5,K*44
$PSMDCN,1*1A
$IIMTW,016,C*3A
$PSMDCN,3*18
$GPGSA,A,3,32,23,25,13,08,04,06,16,07,27,20,03,1.4,0.9,1.1*35
$PSMDCN,3*18
$GPGSV,3,1,12,32,23,156,33,23,71,034,42,25,60,278,34,13,52,321,47*71
!AIVDM,1,1,,A,15N85<001ko?Gj>Ea?aQl1K>00Sb,0*76
$PSMDCN,3*18
$GPGSV,3,2,12,08,08,243,27,04,13,286,29,06,08,102,37,16,38,058,43*75
$PSMDCN,1*1A
$IIHDM,310,M*3E
$PSMDCN,1*1A
$IIVHW,,T,310,M,08.15,N,15.09,K*66
$PSMDCN,2*19
$RARSD,,,,,,,,,0.350,181.6,1.500,N,H*5E
!AIVDM,1,1,,A,15N7mT0P01o@9LtEWGcr<?w>0D1:,0*5C
$PSMDCN,3*18
$GPGSV,3,3,12,07,42,256,40,27,35,257,36,20,42,172,42,03,09,118,34*7B
$PSMDCN,1*1A
$IIDBT,074.5,f,022.7,M,012.4,F*17
$PSMDCN,1*1A
$IIVWR,065,L,17.8,N,09.1,M,032.9,K*44
$PSMDCN,2*19
$ECGGA,194330,3748.824,N,12226.873,W,1,06,2.0,-17.0,M,0.0,M,0.0,*43
$PSMDCN,1*1A
$IIMTW,016,C*3A
$PSMDCN,2*19
$ECGLL,3748.824,N,12226.873,W,194330,A,A*47
$PSMDCN,2*19
$ECRMC,194330,A,3748.824,N,12226.873,W,7.9,319.0,140708,015.0,E,A*10
$PSMDCN,2*19
$ECVTG,319.0,T,304.0,M,7.9,N,14.6,K,A*03
!AIVDM,1,1,,B,15MwDf0P5TG?K1bEdlJsu?v80@2f,0*0C
$PSMDCN,2*19
$ECZDA,194330,14,07,2008,,*5D
$PSMDCN,3*18
$GPGSA,A,3,32,23,25,13,08,04,06,16,07,27,20,03,1.4,0.9,1.1*35
$PSMDCN,3*18
$GPGSV,3,1,12,32,23,156,33,23,71,034,42,25,60,278,30,13,52,321,46*74
!AIVDM,1,1,,B,15NE@2P001o?lOLEd94IOQw@0@GJ,0*37
$PSMDCN,3*18
$GPGSV,3,2,12,08,08,243,28,04,13,286,30,06,08,102,37,16,38,058,44*75
$PSMDCN,1*1A
$IIHDM,310,M*3E
$PSMDCN,1*1A
$IIVHW,,T,310,M,08.16,N,15.09,K*65
$PSMDCN,3*18
$GPGSV,3,3,12,07,42,256,39,27,35,257,34,20,42,172,43,03,09,118,33*71
$PSMDCN,1*1A
$IIDBT,074.5,f,022.7,M,012.4,F*17
$PSMDCN,1*1A
$IIVWR,061,L,18.2,N,09.3,M,033.8,K*47
$PSMDCN,1*1A
$IIMTW,016,C*3A
!AIVDM,1,1,,A,403OvkQuQoCc`o?UhDEf=L7008Gb,0*48
$PSMDCN,3*18
$GPGSA,A,3,32,23,25,13,08,04,06,16,07,27,20,03,1.4,0.9,1.1*35
$PSMDCN,3*18
$GPGSV,3,1,12,32,23,156,34,23,71,034,44,25,60,278,29,13,52,321,45*7E
$PSMDCN,1*1A
$IIHDM,311,M*3F
$PSMDCN,3*18
$GPGSV,3,2,12,08,08,243,29,04,13,286,32,06,08,102,37,16,38,058,46*74
!AIVDM,1,1,,B,15MuU00P0qG?N0TE`gJ3Lww>08H5,0*33
$PSMDCN,1*1A
$IIVHW,,T,311,M,08.16,N,15.11,K*6D
$PSMDCN,2*19
$RARSD,,,,,,,,,0.350,181.6,1.500,N,H*5E
$PSMDCN,1*1A
$IIDBT,074.5,f,022.7,M,012.4,F*17
$PSMDCN,3*18
$GPGSV,3,3,12,07,42,256,41,27,35,257,35,20,42,172,42,03,09,118,33*7E
!AIVDM,1,1,,B,15NDS<PP07G?cKLE`R4`lOv>0@4@,0*13
!AIVDM,1,1,,A,15Mw0BPP1vG?WOjE`fuL3gwB06Jd,0*14
$PSMDCN,1*1A
$IIVWR,064,L,19.1,N,09.8,M,035.4,K*41
$PSMDCN,2*19
$ECGGA,194340,3748.827,N,12226.876,W,1,06,2.0,-17.0,M,0.0,M,0.0,*42
$PSMDCN,1*1A
$IIMTW,016,C*3A
$PSMDCN,2*19
$ECGLL,3748.827,N,12226.876,W,194340,A,A*46
$PSMDCN,2*19
$ECRMC,194340,A,3748.827,N,12226.876,W,7.9,321.0,140708,015.0,E,A*1A
!AIVDM,1,1,,B,15Mvld000WG?`m<EcCF6uEWB0@Hu,0*41
$PSMDCN,2*19
$ECVTG,321.0,T,306.0,M,7.9,N,14.6,K,A*0A
!AIVDM,1,1,,A,15ND4kP00uG?nk<EaNvdmJAB00S?,0*23
$PSMDCN,2*19
$ECZDA,194340,14,07,2008,,*5A
$PSMDCN,3*18
$GPGSA,A,3,32,23,25,13,08,04,06,16,07,27,20,03,1.4,0.9,1.1*35
!AIVDM,1,1,,A,15Mv4O0P02G?fh4E`8KFjOv80H2j,0*19
$PSMDCN,3*18
$GPGSV,3,1,12,32,23,156,36,23,71,034,46,25,60,278,29,13,52,321,45*7E
!AIVDM,1,1,,A,15Mva80P0VG?WUPEcIw88?wD00Sg,0*4C
$PSMDCN,3*18
$GPGSV,3,2,12,08,08,243,25,04,13,286,32,06,08,102,35,16,38,058,41*7D
$PSMDCN,1*1A
$IIHDM,310,M*3E
$PSMDCN,3*18
$GPGSV,3,3,12,07,42,256,42,27,35,257,37,20,42,172,42,03,09,118,32*7E
$PSMDCN,1*1A
$IIVHW,,T,310,M,08.15,N,15.11,K*6F
$PSMDCN,1*1A
$IIDBT,075.2,f,022.9,M,012.5,F*1E
$PSMDCN,1*1A
$IIVWR,059,L,19.7,N,10.1,M,036.5,K*4A
$PSMDCN,1*1A
$IIMTW,016,C*3A
$PSMDCN,3*18
$GPGSA,A,3,32,23,25,13,08,04,06,16,07,27,20,03,1.4,0.9,1.1*35
$PSMDCN,3*18
$GPGSV,3,1,12,32,23,156,37,23,71,034,46,25,60,278,32,13,52,321,46*76
$PSMDCN,3*18
$GPGSV,3,2,12,08,08,243,27,04,13,286,32,06,08,102,35,16,38,058,45*7B
$PSMDCN,1*1A
$IIHDM,310,M*3E
!AIVDM,1,1,,B,15MvV`0P01G?dCHE`SSpROwF00Sh,0*18
$PSMDCN,1*1A
$IIVHW,,T,310,M,08.13,N,15.09,K*60
$PSMDCN,3*18
$GPGSV,3,3,12,07,42,256,40,27,35,257,37,20,42,172,41,03,09,118,32*7F
$PSMDCN,2*19
$RARSD,,,,,,,,,0.350,181.6,1.500,N,H*5E
$PSMDCN,1*1A
$IIDBT,077.1,f,023.5,M,012.8,F*1F
$PSMDCN,1*1A
$IIVWR,061,L,20.3,N,10.4,M,037.7,K*49
$PSMDCN,2*19
$ECGGA,194340,3748.829,N,12226.877,W,1,06,2.0,-17.0,M,0.0,M,0.0,*4D
$PSMDCN,1*1A
$IIMTW,016,C*3A
$PSMDCN,2*19
$ECGLL,3748.829,N,12226.877,W,194340,A,A*49
$PSMDCN,2*19
$ECRMC,194340,A,3748.829,N,12226.877,W,7.9,323.0,140708,015.0,E,A*17
$PSMDCN,2*19
$ECVTG,323.0,T,308.0,M,7.9,N,14.6,K,A*06
$PSMDCN,2*19
$ECZDA,194340,14,07,2008,,*5A
$PSMDCN,3*18
$GPGSA,A,3,32,23,25,13,08,04,06,16,07,27,20,03,1.4,0.9,1.1*35
!AIVDM,1,1,,B,15Mvht5P13G?FUfE`v<jUwwF0D0t,0*4A
$PSMDCN,3*18
$GPGSV,3,1,12,32,23,156,39,23,71,034,46,25,60,278,34,13,52,321,46*7E
!AIVDM,1,1,,B,15Mw0LPP3jG?Q5fEaaJmjgwV0L0q,0*37
$PSMDCN,3*18
$GPGSV,3,2,12,08,08,243,27,04,13,286,31,06,08,102,35,16,38,058,45*78
$PSMDCN,1*1A
$IIHDM,311,M*3F
$PSMDCN,1*1A
$IIVHW,,T,311,M,08.13,N,15.05,K*6D
$PSMDCN,3*18
$GPGSV,3,3,12,07,42,256,41,27,35,257,37,20,42,172,41,03,09,118,32*7E
$PSMDCN,1*1A
$IIDBT,078.4,f,023.9,M,013.0,F*10
$PSMDCN,1*1A
$IIVWR,058,L,21.0,N,10.8,M,039.0,K*44
$PSMDCN,1*1A
$IIMTW,016,C*3A
!AIVDM,1,1,,B,15Mv2JPP00G?hoBEWF2@0?wF06Jd,0*6F
$PSMDCN,3*18
$GPGSA,A,3,32,23,25,13,08,04,06,16,07,27,20,03,1.4,0.9,1.1*35
$PSMDCN,3*18
$GPGSV,3,1,12,32,23,156,38,23,71,034,45,25,60,278,34,13,52,321,45*7F
$PSMDCN,3*18
$GPGSV,3,2,12,08,08,243,23,04,13,286,30,06,08,102,32,16,38,058,45*7A
$PSMDCN,1*1A
$IIHDM,311,M*3F
$PSMDCN,2*19
$RARSD,,,,,,,,,0.350,181.6,1.500,N,H*5E
$PSMDCN,1*1A
$IIVHW,,T,311,M,08.14,N,15.05,K*6A
$PSMDCN,3*18
$GPGSV,3,3,12,07,42,256,41,27,35,257,36,20,42,172,41,03,09,118,33*7E
$PSMDCN,1*1A
$IIDBT,078.7,f,024.0,M,013.1,F*1C
!AIVDM,1,1,,B,403OvkAuQoCcdo?6H<Ea1QG00L1>,0*5C
$PSMDCN,2*19
$ECGGA,194340,3748.835,N,12226.882,W,1,06,2.0,-17.0,M,0.0,M,0.0,*4A
$PSMDCN,1*1A
$IIVWR,057,L,21.8,N,11.2,M,040.4,K*42
$PSMDCN,1*1A
$IIMTW,016,C*3A
$PSMDCN,2*19
$ECGLL,3748.835,N,12226.882,W,194340,A,A*4E
$PSMDCN,2*19
$ECRMC,194340,A,3748.835,N,12226.882,W,7.9,324.0,140708,015.0,E,A*17
$PSMDCN,2*19
$ECVTG,324.0,T,309.0,M,7.9,N,14.6,K,A*00
$PSMDCN,2*19
$ECZDA,194340,14,07,2008,,*5A
$PSMDCN,3*18
$GPGSA,A,3,32,23,25,13,08,04,06,16,07,27,20,03,1.4,0.9,1.1*35
$PSMDCN,3*18
$GPGSV,3,1,12,32,23,156,38,23,71,034,45,25,60,278,34,13,52,321,45*7F
!AIVDM,1,1,,A,15Mw0LPP3hG?Q8REa`vUk?wb00SB,0*4B
$PSMDCN,3*18
$GPGSV,3,2,12,08,08,243,23,04,13,286,28,06,08,102,36,16,38,058,46*74
$PSMDCN,1*1A
$IIHDM,312,M*3C
$PSMDCN,3*18
$GPGSV,3,3,12,07,42,256,40,27,35,257,36,20,42,172,41,03,09,118,35*79
$PSMDCN,1*1A
$IIVHW,,T,312,M,08.15,N,15.07,K*6A
$PSMDCN,1*1A
$IIDBT,078.7,f,024.3,M,013.1,F*1F
!AIVDM,1,1,,A,15Mw<jPP0uG@06HE`=7:dOwL0<19,0*43
$PSMDCN,1*1A
$IIVWR,064,L,21.5,N,11.0,M,039.9,K*4E
$PSMDCN,1*1A
$IIMTW,016,C*3A
$PSMDCN,3*18
$GPGSA,A,3,32,23,25,13,08,04,06,16,07,27,20,03,1.4,0.9,1.1*35
$PSMDCN,3*18
$GPGSV,3,1,12,32,23,156,36,23,71,034,45,25,60,278,30,13,52,321,44*74
$PSMDCN,3*18
$GPGSV,3,2,12,08,08,243,24,04,13,286,28,06,08,102,37,16,38,058,40*74
$PSMDCN,1*1A
$IIHDM,312,M*3C
!AIVDM,1,1,,A,15MvK1PP1WG?NFLE`nBc5?wL08KV,0*77
$PSMDCN,2*19
$RARSD,,,,,,,,,0.350,181.6,1.500,N,H*5E
$PSMDCN,1*1A
$IIVHW,,T,312,M,08.16,N,15.09,K*67
!AIVDM,1,1,,A,15Mw0=UP11G?b3hEa2G4fgwL08Ka,0*2C
$PSMDCN,3*18
$GPGSV,3,3,12,07,42,256,40,27,35,257,34,20,42,172,41,03,09,118,35*7B
$PSMDCN,1*1A
$IIDBT,079.6,f,024.2,M,013.2,F*1D
$PSMDCN,3*18
$PGRMT,GPS17x Software Version 2.30,,,,,,,,*00
$PSMDCN,1*1A
$IIVWR,065,L,21.2,N,10.9,M,039.2,K*4B
$PSMDCN,2*19
$ECGGA,194340,3748.838,N,12226.885,W,1,06,2.0,-17.0,M,0.0,M,0.0,*40
$PSMDCN,1*1A
$IIMTW,016,C*3A
$PSMDCN,2*19
$ECGLL,3748.838,N,12226.885,W,194340,A,A*44
$PSMDCN,2*19
$ECRMC,194340,A,3748.838,N,12226.885,W,7.8,325.0,140708,015.0,E,A*1D
$PSMDCN,2*19
$ECVTG,325.0,T,310.0,M,7.8,N,14.5,K,A*0B
$PSMDCN,2*19
$ECZDA,194340,14,07,2008,,*5A
$PSMDCN,3*18
$GPGSA,A,3,32,23,25,13,08,04,06,16,07,27,20,03,1.4,0.9,1.1*35
!AIVDM,1,1,,B,15MwDf0P5UG?JWpEdn;;mgvH0H7M,0*55
!AIVDM,1,1,,B,15Ml7W?P?wG@5BfE`tsv4?wP00Rj,0*11
$PSMDCN,3*18
$GPGSV,3,1,12,32,23,156,29,23,71,034,46,25,60,278,33,13,52,321,47*79
!AIVDM,1,1,,B,15Mv2OPP00G?i38EWFA00?wL0@L3,0*63
!AIVDM,1,1,,A,15MwkRU01aG?GgLEa?AQk1IR0<16,0*41
$PSMDCN,3*18
$GPGSV,3,2,12,08,08,243,26,04,13,286,28,06,08,102,38,16,38,058,42*7B
$PSMDCN,1*1A
$IIHDM,314,M*3A
$PSMDCN,1*1A
$IIVHW,,T,314,M,08.17,N,15.11,K*69
$PSMDCN,3*18
$GPGSV,3,3,12,07,42,256,41,27,35,257,34,20,42,172,43,03,09,118,35*78
!AIVDM,1,1,,B,15Mw0LPP3hG?Q;DEa`R5i?wf00S;,0*66
$PSMDCN,1*1A
$IIDBT,079.5,f,024.2,M,013.2,F*1E
$PSMDCN,1*1A
$IIVWR,067,L,20.9,N,10.7,M,038.7,K*49
$PSMDCN,1*1A
$IIMTW,016,C*3A
!AIVDM,1,1,,B,15Ms0FP01Eo?Q=rEaj9CWBsP08LQ,0*24
$PSMDCN,3*18
$GPGSA,A,3,32,23,25,13,08,04,06,16,07,27,20,03,1.4,0.9,1.1*35
!AIVDM,1,1,,B,15MvJw5P0EG?V34EaDESuwwP08LU,0*5C
$PSMDCN,3*18
$GPGSV,3,1,12,32,23,156,29,23,71,034,45,25,60,278,37,13,52,321,44*7D
$PSMDCN,3*18
$GPGSV,3,2,12,08,08,243,27,04,13,286,28,06,08,102,36,16,38,058,42*74
$PSMDCN,1*1A
$IIHDM,313,M*3D
!AIVDM,2,1,7,B,55N9?cP00001L@CG3GLlTdTtp62222222222220O?0D<<5no0;DPj84S,0*7B
$PSMDCN,1*1A
$IIVHW,,T,313,M,08.20,N,15.18,K*63
$PSMDCN,2*19
$RARSD,,,,,,,,,0.350,181.6,1.500,N,H*5E
$PSMDCN,3*18
$GPGSV,3,3,12,07,42,256,40,27,35,257,33,20,42,172,36,03,09,118,35*7C
!AIVDM,2,2,7,B,5p<p88888888880,2*29
$PSMDCN,1*1A
$IIDBT,079.5,f,024.2,M,013.2,F*1E
$PSMDCN,2*19
$ECGGA,194340,3748.842,N,12226.888,W,1,06,2.0,-17.0,M,0.0,M,0.0,*40
$PSMDCN,1*1A
$IIVWR,065,L,20.6,N,10.6,M,038.2,K*40
$PSMDCN,1*1A
$IIMTW,016,C*3A
$PSMDCN,2*19
$ECGLL,3748.842,N,12226.888,W,194340,A,A*44
!AIVDM,1,1,,B,15N85<001ko?Gt<Ea@UQl1KT06Jd,0*51
$PSMDCN,2*19
$ECRMC,194340,A,3748.842,N,12226.888,W,7.8,326.0,140708,015.0,E,A*1E
$PSMDCN,2*19
$ECVTG,326.0,T,311.0,M,7.8,N,14.5,K,A*09
$PSMDCN,2*19
$ECZDA,194340,14,07,2008,,*5A
$PSMDCN,3*18
$GPGSA,A,3,32,23,25,13,08,04,06,16,07,27,20,03,1.4,0.9,1.1*35
$PSMDCN,3*18
$GPGSV,3,1,12,32,23,156,32,23,71,034,45,25,60,278,37,13,52,321,44*77
$PSMDCN,3*18
$GPGSV,3,2,12,08,08,243,25,04,13,286,28,06,08,102,32,16,38,058,43*73
$PSMDCN,3*18
$GPGSV,3,3,12,07,42,256,36,27,35,257,30,20,42,172,33,03,09,118,35*7B
$PSMDCN,1*1A
$IIHDM,312,M*3C
$PSMDCN,1*1A
$IIVHW,,T,312,M,08.23,N,15.24,K*6E
$PSMDCN,1*1A
$IIDBT,079.5,f,024.2,M,013.2,F*1E
!AIVDM,1,1,,A,15Mw0LPP3iG?Q?NEaWoEhwwl06Jd,0*13
$PSMDCN,1*1A
$IIVWR,062,L,20.7,N,10.6,M,038.4,K*40
!AIVDM,1,1,,B,403OvkQuQoCcjo?UhDEf=L700<1?,0*6E
$PSMDCN,1*1A
$IIMTW,016,C*3A
!AIVDM,1,1,,B,15N0Hd0P1JG>e?rEW=`jjOw`06Jd,0*06
$PSMDCN,3*18
$GPGSA,A,3,32,23,25,13,08,04,06,16,07,27,20,03,1.4,0.9,1.1*35
!AIVDM,1,1,,A,15MuU00P0qG?N6lE`gL3IOwR0<0g,0*77
$PSMDCN,3*18
$GPGSV,3,1,12,32,23,156,30,23,71,034,41,25,60,278,33,13,52,321,45*74
$PSMDCN,1*1A
$IIHDM,310,M*3E
$PSMDCN,1*1A
$IIVHW,,T,310,M,08.26,N,15.24,K*69
$PSMDCN,2*19
$RARSD,,,,,,,,,0.350,181.6,1.500,N,H*5E
$PSMDCN,3*18
$GPGSV,3,2,12,08,08,243,27,04,13,286,27,06,08,102,27,16,38,058,44*7D
$PSMDCN,1*1A
$IIDBT,079.5,f,024.2,M,013.2,F*1E
$PSMDCN,2*19
$ECGGA,194350,3748.846,N,12226.891,W,1,06,2.0,-17.0,M,0.0,M,0.0,*4D
$PSMDCN,3*18
$GPGSV,3,3,12,07,42,256,36,27,35,257,31,20,42,172,32,03,09,118,32*7C
$PSMDCN,1*1A
$IIVWR,061,L,21.4,N,11.0,M,039.6,K*45
$PSMDCN,1*1A
$IIMTW,016,C*3A
$PSMDCN,2*19
$ECGLL,3748.846,N,12226.891,W,194350,A,A*49
$PSMDCN,2*19
$ECRMC,194350,A,3748.846,N,12226.891,W,8.0,326.0,140708,015.0,E,A*14
$PSMDCN,2*19
$ECVTG,326.0,T,311.0,M,8.0,N,14.8,K,A*03
!AIVDM,2,1,8,A,85PH52AKfHuHk1vre@cWED9BopJCJ7t@86SsvfIUWm`QEBt5KOlwtbfi,0*15
!AIVDM,2,2,8,A,4qCwM<3J7BBe2?AJqkkuWLQp1Ppm4JGo48OAJJh,2*4F
$PSMDCN,2*19
$ECZDA,194350,14,07,2008,,*5B
$AITXT,01,01,91,FREQ,2087,2088*57
!AIVDM,1,1,,B,15ND4kP00uG?ngbEaOS<mJ?V0@NA,0*77
$PSMDCN,3*18
$GPGSA,A,3,32,23,25,13,08,04,06,16,07,27,20,03,1.4,0.9,1.1*35
$PSMDCN,3*18
$GPGSV,3,1,12,32,23,156,31,23,71,034,43,25,60,278,33,13,52,321,46*74
!AIVDM,1,1,,B,15Mva80P0VG?WS`EcIV85Ow`0HNK,0*48
$PSMDCN,3*18
$GPGSV,3,2,12,08,08,243,23,04,13,286,23,06,08,102,33,16,38,057,45*76
!AIVDM,1,1,,B,15Mw0LPP3iG?Q@rEaWaEhwwn0801,0*7E
$PSMDCN,1*1A
$IIHDM,307,M*38
!AIVDM,1,1,,A,15Mvld000VG?`m<EcBrVs5UV0@O6,0*32
$PSMDCN,1*1A
$IIVHW,,T,307,M,08.29,N,15.29,K*6D
!AIVDM,1,1,,A,15N00t0P1@G?r?hEa;ro3OwT0<11,0*05
$PSMDCN,3*18
$GPGSV,3,3,12,07,42,256,37,27,35,257,31,20,42,172,30,03,09,118,23*7F
$PSMDCN,1*1A
$IIDBT,079.5,f,024.2,M,013.2,F*1E
$PSMDCN,1*1A
$IIVWR,061,L,21.5,N,11.0,M,039.9,K*4B
!AIVDM,1,1,,B,15MlVUgP00G?R@NEbjRP0?wV00Rt,0*57
$PSMDCN,1*1A
$IIMTW,016,C*3A
$PSMDCN,3*18
$GPGSA,A,3,32,23,25,13,08,04,06,16,07,27,20,03,1.4,0.9,1.1*35
$PSMDCN,3*18
$GPGSV,3,1,12,32,23,156,30,23,71,034,45,25,60,278,32,13,52,321,46*72
!AIVDM,1,1,,B,35Mtu<U000o?wu2E`@HqTk?b0000,0*68
$PSMDCN,3*18
$GPGSV,3,2,12,08,08,243,21,04,13,286,24,06,08,102,34,16,38,057,42*73
$PSMDCN,1*1A
$IIHDM,304,M*3B
$PSMDCN,1*1A
$IIVHW,,T,304,M,08.32,N,15.40,K*6B
$PSMDCN,2*19
$RARSD,,,,,,,,,0.350,181.6,1.500,N,H*5E
!AIVDM,1,1,,A,15N0<20000G?ncTEd8:lE:ob0D17,0*3C
$PSMDCN,3*18
$GPGSV,3,3,12,07,42,256,37,27,35,257,35,20,42,172,30,03,09,118,24*7C
$PSMDCN,1*1A
$IIDBT,079.5,f,024.2,M,013.2,F*1E
$PSMDCN,2*19
$ECGGA,194350,3748.850,N,12226.895,W,1,06,2.0,-17.0,M,0.0,M,0.0,*4E
$PSMDCN,1*1A
$IIVWR,060,L,22.4,N,11.5,M,041.6,K*4D
$PSMDCN,1*1A
$IIMTW,016,C*3A
$PSMDCN,2*19
$ECGLL,3748.850,N,12226.895,W,194350,A,A*4A
$PSMDCN,2*19
$ECRMC,194350,A,3748.850,N,12226.895,W,8.1,328.0,140708,015.0,E,A*18
!AIVDM,1,1,,B,15MtnQ0P1IG?fwvE`>4A3?wd00RU,0*56
$PSMDCN,2*19
$ECVTG,328.0,T,313.0,M,8.1,N,15.0,K,A*07
$PSMDCN,2*19
$ECZDA,194350,14,07,2008,,*5B
$PSMDCN,3*18
$GPGSA,A,3,32,23,25,13,,04,06,16,07,27,20,03,1.6,0.9,1.3*3D
$PSMDCN,3*18
$GPGSV,3,1,12,32,23,156,29,23,71,034,46,25,60,278,33,13,52,321,45*7B
$PSMDCN,3*18
$GPGSV,3,2,12,08,08,243,21,04,13,286,25,06,08,102,34,16,38,057,43*73
!AIVDM,1,1,,A,15Mw0LPP3hG?QCdEaW<Ukgv206Jh,0*47
$PSMDCN,3*18
$GPGSV,3,3,12,07,42,256,36,27,35,257,36,20,42,172,33,03,09,118,27*7E
$PSMDCN,1*1A
$IIHDM,302,M*3D
$PSMDCN,1*1A
$IIVHW,,T,302,M,08.31,N,15.39,K*60
$PSMDCN,1*1A
$IIDBT,079.7,f,024.3,M,013.2,F*1D
$PSMDCN,1*1A
$IIVWR,058,L,23.1,N,11.9,M,042.8,K*43
$PSMDCN,1*1A
$IIMTW,016,C*3A
$PSMDCN,3*18
$GPGSA,A,3,32,23,25,13,08,04,06,16,07,27,20,03,1.4,0.9,1.1*35
$PSMDCN,3*18
$GPGSV,3,1,12,32,23,156,31,23,71,034,46,25,60,278,33,13,52,321,45*72
!AIVDM,1,1,,B,15Mv3S0P00G@510Ea0V@0?wb0<15,0*39
$PSMDCN,3*18
$GPGSV,3,2,12,08,08,243,25,04,13,286,25,06,08,102,30,16,38,057,43*73
$PSMDCN,1*1A
$IIHDM,301,M*3E
!AIVDM,1,1,,B,D03Ovk@C1N>4,0*46
$PSMDCN,1*1A
$IIVHW,,T,301,M,08.30,N,15.39,K*62
$PSMDCN,2*19
$RARSD,,,,,,,,,0.350,181.6,1.500,N,H*5E
$PSMDCN,3*18
$GPGSV,3,3,12,07,42,256,40,27,35,257,34,20,42,172,31,03,09,118,27*7F
$PSMDCN,1*1A
$IIDBT,079.6,f,024.2,M,013.2,F*1D
$PSMDCN,2*19
$ECGGA,194350,3748.853,N,12226.899,W,1,06,2.0,-17.0,M,0.0,M,0.0,*41
$PSMDCN,1*1A
$IIVWR,059,L,22.7,N,11.7,M,042.1,K*42
$PSMDCN,1*1A
$IIMTW,016,C*3A
$PSMDCN,2*19
$ECGLL,3748.853,N,12226.899,W,194350,A,A*45
$PSMDCN,2*19
$ECRMC,194350,A,3748.853,N,12226.899,W,8.1,325.0,140708,015.0,E,A*1A
!AIVDM,1,1,,B,15MvK1PP1WG?N<jE`nW;C?wf06Jd,0*04
$PSMDCN,2*19
$ECVTG,325.0,T,310.0,M,8.1,N,15.0,K,A*09
$PSMDCN,2*19
$ECZDA,194350,14,07,2008,,*5B
$PSMDCN,3*18
$GPGSA,A,3,32,23,25,13,08,04,06,16,07,27,20,03,1.4,0.9,1.1*35
$PSMDCN,3*18
$GPGSV,3,1,12,32,23,156,32,23,71,034,44,25,60,278,30,13,52,321,45*70
!AIVDM,1,1,,B,15N50UgP1`G?WanEa6ALPOwd08Ph,0*5A
$PSMDCN,3*18
$GPGSV,3,2,12,08,08,243,25,04,13,286,26,06,08,102,29,16,38,057,45*7E
!AIVDM,1,1,,A,34i:5j5001G?bW@E`UTJQESh0000,0*65
$PSMDCN,1*1A
$IIHDM,302,M*3D
!AIVDM,1,1,,B,15Mw0LPP3gG?QFNEaVhEiOv606Jh,0*0F
$PSMDCN,3*18
$GPGSV,3,3,12,07,42,256,40,27,35,257,34,20,42,172,30,03,09,118,29*70
$PSMDCN,1*1A
$IIVHW,,T,302,M,08.31,N,15.39,K*60
$PSMDCN,1*1A
$IIDBT,079.6,f,024.2,M,013.2,F*1D
$PSMDCN,1*1A
$IIVWR,063,L,21.6,N,11.1,M,040.1,K*4D
$PSMDCN,1*1A
$IIMTW,016,C*3A
!AIVDM,1,1,,B,15Mtu:0000o@05pE`?C`w07j0<19,0*2A
!AIVDM,2,1,9,A,55Mv2JP00001L8?KGO08EAAV0h0000000000000l00B075b006EH4iSp,0*7E
!AIVDM,2,2,9,A,4=L0h0000000000,2*00
!AIVDM,1,1,,B,15Mw0=UP11G?b9nEa1w4j?wh08Q7,0*2C
$PSMDCN,3*18
$GPGSA,A,3,32,23,25,13,08,04,06,16,07,27,20,03,1.4,0.9,1.1*35
!AIVDM,1,1,,A,15Ml7W?P?wG@5C2E`tu>4?wj00Rj,0*33
!AIVDM,1,1,,B,15Mw<jPP0tG?ww2E`=9:bgwj0<19,0*44
$PSMDCN,3*18
$GPGSV,3,1,12,32,23,156,24,23,71,034,42,25,60,278,31,13,52,321,46*73
$PSMDCN,3*18
$GPGSV,3,2,12,08,08,243,24,04,13,286,27,06,08,102,30,16,38,057,46*75
$PSMDCN,1*1A
$IIHDM,304,M*3B
!AIVDM,1,1,,B,15M67FO000G@00dE`@1sgS9j2HQL,0*10
$PSMDCN,1*1A
$IIVHW,,T,304,M,08.32,N,15.40,K*6B
$PSMDCN,2*19
$RARSD,,,,,,,,,0.350,181.6,1.500,N,H*5E
$PSMDCN,3*18
$GPGSV,3,3,12,07,42,256,38,27,35,257,34,20,42,172,36,03,09,118,33*72
$PSMDCN,1*1A
$IIDBT,079.6,f,024.2,M,013.2,F*1D
$PSMDCN,1*1A
$IIVWR,070,L,21.6,N,11.1,M,040.0,K*4E
$PSMDCN,2*19
$ECGGA,194350,3748.856,N,12226.903,W,1,06,2.0,-17.0,M,0.0,M,0.0,*46
$PSMDCN,1*1A
$IIMTW,016,C*3A
$PSMDCN,2*19
$ECGLL,3748.856,N,12226.903,W,194350,A,A*42
$PSMDCN,2*19
$ECRMC,194350,A,3748.856,N,12226.903,W,8.1,320.0,140708,015.0,E,A*18
$PSMDCN,2*19
$ECVTG,320.0,T,305.0,M,8.1,N,15.0,K,A*08
$PSMDCN,2*19
$ECZDA,194350,14,07,2008,,*5B
$PSMDCN,3*18
$GPGSA,A,3,32,23,25,13,08,04,06,16,07,27,20,03,1.4,0.9,1.1*35
$PSMDCN,3*18
$GPGSV,3,1,12,32,23,156,27,23,71,034,46,25,60,278,32,13,52,321,46*77
$PSMDCN,3*18
$GPGSV,3,2,12,08,08,243,25,04,13,286,28,06,08,102,35,16,38,057,45*7D
$PSMDCN,3*18
$GPGSV,3,3,12,07,42,256,39,27,35,257,33,20,42,172,41,03,09,118,34*73
$PSMDCN,1*1A
$IIHDM,307,M*38
!AIVDM,1,1,,A,15Mw0LPP3gG?QIBEaVDEgOv:00S<,0*6A
$PSMDCN,1*1A
$IIVHW,,T,307,M,08.36,N,15.40,K*6C
$PSMDCN,1*1A
$IIDBT,079.6,f,024.2,M,013.2,F*1D
$PSMDCN,1*1A
$IIVWR,076,L,20.7,N,10.6,M,038.4,K*45
$PSMDCN,1*1A
$IIMTW,016,C*3A
$PSMDCN,3*18
$GPGSA,A,3,32,23,25,13,08,04,06,16,07,27,20,03,1.4,0.9,1.1*35
!AIVDM,1,1,,A,15N85<001jo?H4NEaAFQliKn08RM,0*21
$PSMDCN,3*18
$GPGSV,3,1,12,32,23,156,30,23,71,034,43,25,60,278,36,13,52,321,43*75
$PSMDCN,3*18
$GPGSV,3,2,12,08,08,243,25,04,13,286,27,06,08,102,37,16,38,057,43*76
$PSMDCN,1*1A
$IIHDM,310,M*3E
$PSMDCN,1*1A
$IIVHW,,T,310,M,08.40,N,15.48,K*63
$PSMDCN,2*19
$RARSD,,,,,,,,,0.350,181.6,1.500,N,H*5E
$PSMDCN,3*18
$GPGSV,3,3,12,07,42,256,38,27,35,257,32,20,42,172,43,03,09,118,34*71
!AIVDM,1,1,,A,15MvJw5P0BG?V5HEaDCkkgwn06Jd,0*15
$PSMDCN,1*1A
$IIDBT,079.2,f,024.1,M,013.2,F*1A
$PSMDCN,1*1A
$IIVWR,077,L,20.3,N,10.4,M,037.5,K*4C
$PSMDCN,2*19
$ECGGA,194350,3748.860,N,12226.907,W,1,06,2.0,-18.0,M,0.0,M,0.0,*48
$PSMDCN,1*1A
$IIMTW,016,C*3A
$PSMDCN,2*19
$ECGLL,3748.860,N,12226.907,W,194350,A,A*43
!AIVDM,1,1,,A,15N7mT0P01o@9M2EWGb:<?v00<1:,0*25
$PSMDCN,2*19
$ECRMC,194350,A,3748.860,N,12226.907,W,8.1,317.0,140708,015.0,E,A*1D
$PSMDCN,2*19
$ECVTG,317.0,T,302.0,M,8.1,N,15.0,K,A*0B
!AIVDM,1,1,,A,15Ms0FP01Fo?QHFEaj6SWBsn0D18,0*2C
$PSMDCN,2*19
$ECZDA,194350,14,07,2008,,*5B
$PSMDCN,3*18
$GPGSA,A,3,32,23,25,13,08,04,06,16,07,27,20,03,1.4,0.9,1.1*35
$PSMDCN,3*18
$GPGSV,3,1,12,32,23,156,32,23,71,034,45,25,60,278,36,13,52,321,42*70
$PSMDCN,3*18
$GPGSV,3,2,12,08,08,243,24,04,13,286,23,06,08,102,36,16,38,057,42*73
$PSMDCN,1*1A
$IIHDM,312,M*3C
$PSMDCN,1*1A
$IIVHW,,T,312,M,08.42,N,15.55,K*6F
$PSMDCN,3*18
$GPGSV,3,3,12,07,42,256,38,27,35,257,31,20,41,172,44,03,09,118,34*76
$PSMDCN,1*1A
$IIDBT,079.2,f,024.1,M,013.2,F*1A
!AIVDM,1,1,,A,85Mwq@iKf?a0OE`O0k0<g4ilUvP;w3d`9UgEdM=6uRP8JQMRE@CS,0*14
$PSMDCN,1*1A
$IIVWR,077,L,20.4,N,10.5,M,037.8,K*47
$PSMDCN,1*1A
$IIMTW,016,C*3A
!AIVDM,1,1,,B,85Mwq@iKf?a0OE`O0k0<g4ilUvP;w3d`9UgEdM=6uRP8JQMRE@CS,0*17
!AIVDM,1,1,,B,15MuU00P10G?N=DE`gNk?gwn0@0B,0*76
!AIVDM,1,1,,A,14VN@:001EG?QoNEajH3V2gn0h?5,0*37
$PSMDCN,3*18
$GPGSA,A,3,32,23,25,13,08,04,06,16,07,27,20,03,1.4,0.9,1.1*35
!AIVDM,1,1,,B,15NDS<PP03G?cK4E`R49Rwvl0@?k,0*42
$PSMDCN,3*18
$GPGSV,3,1,12,32,23,156,34,23,71,034,44,25,60,278,36,13,52,321,42*77
$PSMDCN,1*1A
$IIHDM,314,M*3A
$PSMDCN,2*19
$RARSD,,,,,,,,,0.350,181.6,1.500,N,H*5E
$PSMDCN,3*18
$GPGSV,3,2,12,08,08,243,23,04,13,286,23,06,08,102,36,16,38,057,42*74
$PSMDCN,1*1A
$IIVHW,,T,314,M,08.45,N,15.59,K*62
$PSMDCN,1*1A
$IIDBT,079.2,f,024.1,M,013.2,F*1A
$PSMDCN,2*19
$ECGGA,194400,3748.864,N,12226.910,W,1,06,2.0,-18.0,M,0.0,M,0.0,*48
$PSMDCN,3*18
$GPGSV,3,3,12,07,42,256,38,27,35,257,31,20,41,172,45,03,09,118,34*77
$PSMDCN,1*1A
$IIVWR,084,L,20.6,N,10.6,M,038.2,K*4F
$PSMDCN,1*1A
$IIMTW,016,C*3A
$PSMDCN,2*19
$ECGLL,3748.864,N,12226.910,W,194400,A,A*43
$PSMDCN,2*19
$ECRMC,194400,A,3748.864,N,12226.910,W,8.1,317.0,140708,015.0,E,A*1D
$PSMDCN,2*19
$ECVTG,317.0,T,302.0,M,8.1,N,15.0,K,A*0B
$PSMDCN,2*19
$ECZDA,194400,14,07,2008,,*59
$PSMDCN,3*18
$GPGSA,A,3,32,23,25,13,08,06,16,07,27,20,03,,1.7,1.0,1.4*3F
$PSMDCN,3*18
$GPGSV,3,1,12,32,23,156,33,23,71,034,44,25,60,278,36,13,52,321,42*70
!AIVDM,1,1,,B,15Mvld000WG?`mPEcBO6smV206Jh,0*13
$PSMDCN,3*18
$GPGSV,3,2,12,08,08,243,24,06,08,102,36,16,38,057,42,07,42,256,40*7C
!AIVDM,1,1,,A,15Mw0LPP3fG?QO8EaUMUaOvB0<0q,0*51
$PSMDCN,3*18
$GPGSV,3,3,12,27,35,257,27,20,41,172,43,03,09,118,34,04,13,286,00*77
$PSMDCN,1*1A
$IIHDM,315,M*3B
$PSMDCN,1*1A
$IIVHW,,T,315,M,08.47,N,15.64,K*6F
!AIVDM,1,1,,A,35NC?O5P00G?O9PE`Pw:Iwv4P000,0*42
$PSMDCN,1*1A
$IIDBT,079.2,f,024.1,M,013.2,F*1A
!AIVDM,1,1,,B,15N00t0P1@G?r?pEa:uFs?v200Rf,0*5E
$PSMDCN,1*1A
$IIVWR,079,L,21.4,N,11.0,M,039.6,K*4C
$PSMDCN,1*1A
$IIMTW,016,C*3A
!AIVDM,1,1,,A,15Mw0BPP1uG?W7BE`hIKSwv400R?,0*30
$PSMDCN,3*18
$GPGSA,A,3,32,23,25,13,08,06,16,07,27,20,03,,1.7,1.0,1.4*3F
$PSMDCN,3*18
$GPGSV,3,1,12,32,23,156,32,23,71,034,46,25,60,278,36,13,52,321,44*75
$PSMDCN,3*18
$GPGSV,3,2,12,08,08,243,29,06,08,102,31,16,38,057,43,07,42,256,40*77
$PSMDCN,1*1A
$IIHDM,316,M*38
!AIVDM,1,1,,B,15MvV`0P01G?dCJE`SS`Cwv60@1m,0*45
$PSMDCN,1*1A
$IIVHW,,T,316,M,08.48,N,15.68,K*6F
$PSMDCN,2*19
$RARSD,,,,,,,,,0.350,181.6,1.500,N,H*5E
$PSMDCN,3*18
$GPGSV,3,3,12,27,35,257,27,20,41,172,43,03,09,118,37,04,13,286,00*74
$PSMDCN,1*1A
$IIDBT,079.2,f,024.1,M,013.2,F*1A
$PSMDCN,1*1A
$IIVWR,080,L,21.6,N,11.1,M,040.1,K*40
$PSMDCN,2*19
$ECGGA,194400,3748.868,N,12226.913,W,1,06,2.0,-18.0,M,0.0,M,0.0,*47
$PSMDCN,1*1A
$IIMTW,016,C*3A
$PSMDCN,2*19
$ECGLL,3748.868,N,12226.913,W,194400,A,A*4C
!AIVDM,1,1,,A,15Mva80P0VG?WQLEcI=86gv60D15,0*7F
$PSMDCN,2*19
$ECRMC,194400,A,3748.868,N,12226.913,W,8.2,320.0,140708,015.0,E,A*15
$PSMDCN,2*19
$ECVTG,320.0,T,305.0,M,8.2,N,15.2,K,A*09
$PSMDCN,2*19
$ECZDA,194400,14,07,2008,,*59
!AIVDM,1,1,,B,15N:A<?P01G?egPE`CI0S?v82H2;,0*22
$PSMDCN,3*18
$GPGSA,A,3,32,23,25,13,08,06,16,07,27,20,03,,1.7,1.0,1.4*3F
$PSMDCN,3*18
$GPGSV,3,1,12,32,23,156,32,23,71,034,45,25,60,278,36,13,52,321,44*76
$PSMDCN,3*18
$GPGSV,3,2,12,08,08,243,28,06,08,102,35,16,38,057,44,07,42,256,40*75
$PSMDCN,1*1A
$IIHDM,316,M*38
$PSMDCN,1*1A
$IIVHW,,T,316,M,08.53,N,15.70,K*6C
$PSMDCN,3*18
$GPGSV,3,3,12,27,35,257,26,20,41,172,44,03,09,118,37,04,13,286,00*72
$PSMDCN,1*1A
$IIDBT,079.2,f,024.1,M,013.2,F*1A
!AIVDM,1,1,,B,15Mw0LPP3gG?QSfEaTmE`?vH0@7;,0*6A
$PSMDCN,1*1A
$IIVWR,078,L,20.8,N,10.7,M,038.5,K*44
!AIVDM,1,1,,B,15Mv2JPP00G?hoBEWF2@0?v600SI,0*2C
$PSMDCN,1*1A
$IIMTW,016,C*3A
!AIVDM,1,1,,B,15Mvht5P13G?FkdE`v`C3wv8082b,0*72
$PSMDCN,3*18
$GPGSA,A,3,32,23,25,13,08,06,16,07,27,20,03,,1.7,1.0,1.4*3F
$PSMDCN,3*18
$GPGSV,3,1,12,32,23,156,28,23,71,034,45,25,60,278,35,13,52,321,44*7E
$PSMDCN,3*18
$GPGSV,3,2,12,08,08,243,26,06,08,102,37,16,38,057,44,07,42,256,38*76
$PSMDCN,1*1A
$IIHDM,316,M*38
$PSMDCN,1*1A
$IIVHW,,T,316,M,08.56,N,15.85,K*63
$PSMDCN,2*19
$RARSD,,,,,,,,,0.350,181.6,1.500,N,H*5E
$PSMDCN,3*18
$GPGSV,3,3,12,27,35,257,31,20,41,172,42,03,09,118,36,04,13,286,00*73
$PSMDCN,1*1A
$IIDBT,079.2,f,024.1,M,013.2,F*1A
$PSMDCN,1*1A
$IIVWR,076,L,20.5,N,10.5,M,038.0,K*40
$PSMDCN,2*19
$ECGGA,194400,3748.872,N,12226.916,W,1,06,2.0,-18.0,M,0.0,M,0.0,*49
$PSMDCN,1*1A
$IIMTW,016,C*3A
$PSMDCN,2*19
$ECGLL,3748.872,N,12226.916,W,194400,A,A*42
$PSMDCN,2*19
$ECRMC,194400,A,3748.872,N,12226.916,W,8.4,325.0,140708,015.0,E,A*18
$PSMDCN,2*19
$ECVTG,325.0,T,310.0,M,8.4,N,15.6,K,A*0A
$PSMDCN,2*19
$ECZDA,194400,14,07,2008,,*59
$PSMDCN,3*18
$GPGSA,A,3,32,23,25,13,08,06,16,07,27,20,03,,1.7,1.0,1.4*3F
$PSMDCN,3*18
$GPGSV,3,1,12,32,23,156,28,23,71,036,43,25,60,278,36,13,52,321,42*7F
!AIVDM,1,1,,A,15Mw<jPP16G?wovE`=6rN?v<06Jh,0*1C
$PSMDCN,3*18
$GPGSV,3,2,12,08,08,243,26,06,08,102,37,16,38,057,43,07,42,256,33*7A
!AIVDM,1,1,,A,15Mw0LPP3gG?QUBEaTWmW?vJ00S?,0*7C
$PSMDCN,3*18
$GPGSV,3,3,12,27,35,257,31,20,41,172,39,03,09,118,36,04,13,286,00*7F
$PSMDCN,1*1A
$IIHDM,315,M*3B
$PSMDCN,1*1A
$IIVHW,,T,315,M,08.59,N,15.85,K*6F
$PSMDCN,1*1A
$IIDBT,079.2,f,024.1,M,013.2,F*1A
$PSMDCN,1*1A
$IIVWR,074,L,21.0,N,10.8,M,038.9,K*42
$PSMDCN,1*1A
$IIMTW,016,C*3A
$PSMDCN,3*18
$GPGSA,A,3,32,23,25,13,08,06,16,07,27,20,03,,1.7,1.0,1.4*3F
$PSMDCN,3*18
$GPGSV,3,1,12,32,23,156,31,23,71,036,44,25,60,278,37,13,52,321,40*73
$PSMDCN,3*18
$GPGSV,3,2,12,08,08,243,26,06,08,102,38,16,38,057,46,07,42,256,29*7B
$PSMDCN,1*1A
$IIHDM,315,M*3B
$PSMDCN,3*18
$GPGSV,3,3,12,27,35,257,32,20,41,172,38,03,09,118,36,04,13,286,00*7D
!AIVDM,1,1,,A,15N50UgP1VG?WQhEa7?tR?v:0<14,0*0A
$PSMDCN,1*1A
$IIVHW,,T,315,M,08.63,N,15.90,K*62
$PSMDCN,2*19
$RARSD,,,,,,,,,0.350,181.6,1.500,N,H*5E
$PSMDCN,1*1A
$IIDBT,079.2,f,024.2,M,013.2,F*19
$PSMDCN,2*19
$ECGGA,194400,3748.876,N,12226.919,W,1,06,2.0,-18.0,M,0.0,M,0.0,*42
$PSMDCN,1*1A
$IIVWR,074,L,21.6,N,11.1,M,040.0,K*4A
$PSMDCN,1*1A
$IIMTW,016,C*3A
$PSMDCN,2*19
$ECGLL,3748.876,N,12226.919,W,194400,A,A*49
!AIVDM,1,1,,A,15MvK1PP1WG?MwvE`o4;@gv>06Jh,0*3F
!AIVDM,1,1,,B,15MwDf0P5TG?IT>Edr3;cgw00D0j,0*55
$PSMDCN,2*19
$ECRMC,194400,A,3748.876,N,12226.919,W,8.5,329.0,140708,015.0,E,A*1E
$PSMDCN,2*19
$ECVTG,329.0,T,314.0,M,8.5,N,15.8,K,A*0D
$PSMDCN,2*19
$ECZDA,194400,14,07,2008,,*59
$PSMDCN,3*18
$GPGSA,A,3,32,23,25,13,08,06,16,07,27,20,03,,1.7,1.0,1.4*3F
!AIVDM,1,1,,B,15MvJw5P0AG?V6rEaDC3egv>0@4S,0*14
$PSMDCN,3*18
$GPGSV,3,1,12,32,23,156,31,23,71,036,44,25,60,278,38,13,52,321,41*7D
$PSMDCN,3*18
$GPGSV,3,2,12,08,08,243,26,06,08,102,38,16,38,057,45,07,42,256,31*71
!AIVDM,1,1,,B,15Ms0FP01Fo?QOpEaj4kW2p>0<19,0*7E
$PSMDCN,1*1A
$IIHDM,314,M*3A
$PSMDCN,1*1A
$IIVHW,,T,314,M,08.70,N,16.11,K*6B
$PSMDCN,3*18
$GPGSV,3,3,12,27,35,257,33,20,41,172,36,03,09,118,36,04,13,286,00*72
!AIVDM,1,1,,A,35ND0<UP00G?m2LEd7Tb1gv>0000,0*76
$PSMDCN,1*1A
$IIDBT,079.5,f,024.2,M,013.2,F*1E
!AIVDM,1,1,,B,15Mw0LPP3hG?QanEaSw5b?vP0<0r,0*1A
$PSMDCN,1*1A
$IIVWR,076,L,22.1,N,11.3,M,041.0,K*4F
$PSMDCN,1*1A
$IIMTW,016,C*3A
!AIVDM,1,1,,B,35MvlfU000G?vPPE`Uf8TApBP000,0*10
!AIVDM,1,1,,A,15MwkRU01WG?H00Ea@k1k1JD0D16,0*0B
$PSMDCN,3*18
$GPGSA,A,3,32,23,25,13,08,06,16,07,27,20,03,,1.7,1.0,1.4*3F
$PSMDCN,3*18
$GPGSV,3,1,12,32,23,156,30,23,71,036,44,25,60,278,35,13,52,321,42*72
$PSMDCN,3*18
$GPGSV,3,2,12,08,08,243,27,06,08,102,37,16,38,057,41,07,42,256,33*79
$PSMDCN,1*1A
$IIHDM,313,M*3D
$PSMDCN,2*19
$RARSD,,,,,,,,,0.350,181.6,1.500,N,H*5E
$PSMDCN,3*18
$GPGSV,3,3,12,27,35,257,32,20,41,172,36,03,09,118,36,04,13,286,00*73
$PSMDCN,1*1A
$IIVHW,,T,313,M,08.72,N,16.11,K*6E
$PSMDCN,1*1A
$IIDBT,079.5,f,024.2,M,013.2,F*1E
$PSMDCN,2*19
$ECGGA,194400,3748.881,N,12226.922,W,1,06,2.0,-18.0,M,0.0,M,0.0,*42
$PSMDCN,1*1A
$IIVWR,079,L,23.0,N,11.8,M,042.6,K*4E
$PSMDCN,1*1A
$IIMTW,016,C*3A
$PSMDCN,2*19
$ECGLL,3748.881,N,12226.922,W,194400,A,A*49
$PSMDCN,2*19
$ECRMC,194400,A,3748.881,N,12226.922,W,8.6,329.0,140708,015.0,E,A*1D
$PSMDCN,2*19
$ECVTG,329.0,T,314.0,M,8.6,N,15.9,K,A*0F
$PSMDCN,2*19
$ECZDA,194400,14,07,2008,,*59
$PSMDCN,3*18
$GPGSA,A,3,32,23,25,13,08,06,16,07,27,20,03,,1.7,1.0,1.4*3F
!AIVDM,1,1,,B,15N85<001jo?H>TEaBB1mQJD085h,0*05
$PSMDCN,3*18
$GPGSV,3,1,12,32,23,156,27,23,71,036,44,25,61,279,35,13,52,321,43*75
!AIVDM,1,1,,A,15NDS<PP06G?cJlE`R3Gcww60D10,0*5F
$PSMDCN,3*18
$GPGSV,3,2,12,08,08,243,27,06,08,102,37,16,38,057,38,07,42,256,35*71
$PSMDCN,1*1A
$IIHDM,314,M*3A
$PSMDCN,3*18
$GPGSV,3,3,12,27,35,257,32,20,41,172,39,03,09,118,35,04,13,286,00*7F
$PSMDCN,1*1A
$IIVHW,,T,314,M,08.73,N,16.14,K*6D
$PSMDCN,1*1A
$IIDBT,081.8,f,024.9,M,013.6,F*1B
!AIVDM,1,1,,B,403OvkQuQoCd:o?UhDEf=L700@65,0*48
$PSMDCN,1*1A
$IIVWR,078,L,23.2,N,11.9,M,043.0,K*4B
$PSMDCN,1*1A
$IIMTW,016,C*3A
!AIVDM,1,1,,A,15MuU00P16G?NDfE`gSC@?vB0<0h,0*41
$PSMDCN,3*18
$GPGSA,A,3,32,23,25,13,08,06,16,07,27,20,03,,1.7,1.0,1.4*3F
$PSMDCN,3*18
$GPGSV,3,1,12,32,23,156,31,23,71,036,44,25,61,279,34,13,52,321,43*73
$PSMDCN,3*18
$GPGSV,3,2,12,08,08,243,21,06,08,102,37,16,38,057,40,07,42,256,37*7A
$PSMDCN,1*1A
$IIHDM,314,M*3A
$PSMDCN,2*19
$RARSD,,,,,,,,,0.350,181.6,1.500,N,H*5E
$PSMDCN,1*1A
$IIVHW,,T,314,M,08.75,N,16.16,K*69
$PSMDCN,3*18
$GPGSV,3,3,12,27,35,257,32,20,41,172,42,03,09,118,35,04,13,286,00*73
$PSMDCN,1*1A
$IIDBT,081.5,f,024.8,M,013.5,F*14
$PSMDCN,2*19
$ECGGA,194410,3748.885,N,12226.926,W,1,06,2.0,-18.0,M,0.0,M,0.0,*43
$PSMDCN,1*1A
$IIVWR,082,L,23.4,N,12.0,M,043.3,K*41
$PSMDCN,1*1A
$IIMTW,016,C*3A
$PSMDCN,2*19
$ECGLL,3748.885,N,12226.926,W,194410,A,A*48
!AIVDM,1,1,,A,15Mvld000WG?`mlEcB66vUVD087A,0*44
$PSMDCN,2*19
$ECRMC,194410,A,3748.885,N,12226.926,W,8.7,328.0,140708,015.0,E,A*1C
!AIVDM,1,1,,B,15MlVUgP00G?R@NEbjRP0?vD0@6i,0*4D
$PSMDCN,2*19
$ECVTG,328.0,T,313.0,M,8.7,N,16.1,K,A*03
$PSMDCN,2*19
$ECZDA,194410,14,07,2008,,*58
$PSMDCN,3*18
$GPGSA,A,3,32,23,25,13,08,06,16,07,27,20,03,,1.7,1.0,1.4*3F
$PSMDCN,3*18
$GPGSV,3,1,12,32,23,156,27,23,71,036,45,25,61,279,34,13,52,321,43*75
$PSMDCN,3*18
$GPGSV,3,2,12,08,08,243,20,06,08,102,39,16,38,057,43,07,42,256,37*76
$PSMDCN,1*1A
$IIHDM,314,M*3A
$PSMDCN,3*18
$GPGSV,3,3,12,27,35,257,32,20,41,172,42,03,09,118,35,04,13,286,00*73
$PSMDCN,1*1A
$IIVHW,,T,314,M,08.77,N,16.24,K*6A
!AIVDM,1,1,,A,15N00t0P1@G?r@`Ea:5nhgvF06Jh,0*7D
!AIVDM,1,1,,B,14VN@:001EG?R2lEajH3V2dF0PRl,0*6F
$PSMDCN,1*1A
$IIDBT,081.5,f,024.8,M,013.5,F*14
!AIVDM,1,1,,B,15Mw0LPP3gG?QgTEaS7Elwv`08;q,0*63
$PSMDCN,1*1A
$IIVWR,082,L,23.3,N,11.9,M,043.1,K*4E
$PSMDCN,1*1A
$IIMTW,016,C*3A
$PSMDCN,3*18
$GPGSA,A,3,32,23,25,13,06,16,07,27,20,03,,,2.2,1.1,1.9*3D
!AIVDM,1,1,,B,15ND4kP00uG?n`FEaPh<rbBH0@7Q,0*4D
$PSMDCN,3*18
$GPGSV,3,1,12,32,23,156,27,23,71,036,45,25,61,279,29,13,52,321,43*79
$PSMDCN,3*18
$GPGSV,3,2,12,06,08,102,40,16,38,057,43,07,42,256,37,27,35,257,32*7D
$PSMDCN,1*1A
$IIHDM,315,M*3B
$PSMDCN,3*18
$GPGSV,3,3,12,20,41,172,43,03,09,118,34,04,13,286,00,08,08,243,00*74
$PSMDCN,2*19
$RARSD,,,,,,,,,0.350,181.6,1.500,N,H*5E
$PSMDCN,1*1A
$IIVHW,,T,315,M,08.78,N,16.24,K*64
$PSMDCN,1*1A
$IIDBT,081.5,f,024.8,M,013.5,F*14
$PSMDCN,2*19
$ECGGA,194410,3748.889,N,12226.929,W,1,06,2.0,-18.0,M,0.0,M,0.0,*40
$PSMDCN,1*1A
$IIVWR,083,L,23.2,N,11.9,M,042.9,K*47
$PSMDCN,1*1A
$IIMTW,016,C*3A
$PSMDCN,2*19
$ECGLL,3748.889,N,12226.929,W,194410,A,A*4B
$PSMDCN,2*19
$ECRMC,194410,A,3748.889,N,12226.929,W,8.7,326.0,140708,015.0,E,A*11
$PSMDCN,2*19
$ECVTG,326.0,T,311.0,M,8.7,N,16.1,K,A*0F
$PSMDCN,3*18
$GPGSA,A,3,32,23,25,13,06,16,07,27,20,03,,,2.2,1.1,1.9*3D
$PSMDCN,2*19
$ECZDA,194410,14,07,2008,,*58
$PSMDCN,3*18
$GPGSV,3,1,12,32,23,156,35,23,71,036,44,25,61,279,31,13,52,321,43*72
$PSMDCN,3*18
$GPGSV,3,2,12,06,08,102,36,16,38,057,44,07,42,256,39,27,35,257,31*76
!AIVDM,1,1,,A,15Mw0LPP3gG?QhrEaRq5mgvb06Jh,0*0B
$PSMDCN,3*18
$GPGSV,3,3,12,20,41,172,42,03,09,118,32,04,13,286,00,08,08,243,00*73
$PSMDCN,1*1A
$IIHDM,317,M*39
$PSMDCN,1*1A
$IIVHW,,T,317,M,08.81,N,16.31,K*64
$PSMDCN,1*1A
$IIDBT,081.5,f,024.8,M,013.5,F*14
!AIVDM,1,1,,A,15Mvht5P13G?FrHE`vgC@wvJ088J,0*60
$PSMDCN,1*1A
$IIVWR,088,L,23.0,N,11.8,M,042.6,K*40
$PSMDCN,1*1A
$IIMTW,016,C*3A
$PSMDCN,3*18
$GPGSA,A,3,32,23,25,13,06,16,07,27,20,03,,,2.2,1.1,1.9*3D
$PSMDCN,3*18
$GPGSV,3,1,12,32,23,156,35,23,71,036,44,25,61,279,32,13,52,321,42*70
$PSMDCN,3*18
$GPGSV,3,2,12,06,08,102,37,16,38,057,43,07,42,256,40,27,35,257,29*77
!AIVDM,1,1,,B,D03OvkAhiN>4,0*34
$PSMDCN,1*1A
$IIHDM,318,M*36
$PSMDCN,3*18
$GPGSV,3,3,12,20,41,172,43,03,09,118,33,04,13,286,00,08,08,243,00*73
$PSMDCN,2*19
$RARSD,,,,,,,,,0.350,181.6,1.500,N,H*5E
$PSMDCN,1*1A
$IIVHW,,T,318,M,08.82,N,16.31,K*68
$PSMDCN,1*1A
$IIDBT,081.1,f,024.7,M,013.5,F*1F
$PSMDCN,2*19
$ECGGA,194410,3748.893,N,12226.933,W,1,06,2.0,-18.0,M,0.0,M,0.0,*40
$PSMDCN,1*1A
$IIVWR,086,L,22.9,N,11.8,M,042.5,K*45
!AIVDM,1,1,,B,15Mw<jPP1DG?wgJE`<vr@OvN00SW,0*34
$PSMDCN,1*1A
$IIMTW,016,C*3A
$PSMDCN,2*19
$ECGLL,3748.893,N,12226.933,W,194410,A,A*4B
!AIVDM,2,1,0,B,85Mwq@iKfK4pQ6>e7CROh@G`;aCLipDCgRIkwjJsJI=hRNj?=HQbtbfi,0*39
!AIVDM,2,2,0,B,4qCwM<3J7BBe2?AJquO@INtvS4R?g=GnCHb0dSD,2*67
$PSMDCN,2*19
$ECRMC,194410,A,3748.893,N,12226.933,W,8.7,326.0,140708,015.0,E,A*11
$PSMDCN,2*19
$ECVTG,326.0,T,311.0,M,8.7,N,16.1,K,A*0F
$PSMDCN,2*19
$ECZDA,194410,14,07,2008,,*58
!AIVDM,1,1,,A,15Mv2JPP00G?hoBEWF2@0?vL0@9=,0*3B
$PSMDCN,3*18
$GPGSA,A,3,32,23,25,13,06,16,07,27,20,03,,,2.2,1.1,1.9*3D
$PSMDCN,3*18
$GPGSV,3,1,12,32,23,156,37,23,71,036,44,25,61,279,32,13,52,321,43*73
!AIVDM,1,1,,B,15MvK1PP1WG?MoBE`oBK7?vN0<09,0*68
!AIVDM,1,1,,B,15Mw0=UP12G?bEDEa1@DpgvN089G,0*43
$PSMDCN,3*18
$GPGSV,3,2,12,06,08,102,35,16,38,057,41,07,42,256,41,27,35,257,31*7F
!AIVDM,1,1,,B,15Mw0LPP3gG?QkPEaRL5r?vf0<0r,0*3D
$PSMDCN,1*1A
$IIHDM,318,M*36
$PSMDCN,3*18
$GPGSV,3,3,12,20,41,172,42,03,09,118,32,04,13,286,00,08,08,243,00*73
$PSMDCN,1*1A
$IIVHW,,T,318,M,08.84,N,16.37,K*68
$PSMDCN,1*1A
$IIDBT,081.1,f,024.7,M,013.5,F*1F
$PSMDCN,1*1A
$IIVWR,086,L,23.6,N,12.1,M,043.7,K*42
$PSMDCN,1*1A
$IIMTW,016,C*3A
!AIVDM,1,1,,B,15M67FO000G@00fE`@1cqS8R2D14,0*39
$PSMDCN,3*18
$GPGSA,A,3,32,23,25,13,06,16,07,27,20,03,,,2.2,1.1,1.9*3D
$PSMDCN,3*18
$GPGSV,3,1,12,32,23,156,33,23,71,036,45,25,61,279,35,13,52,321,43*71
$PSMDCN,3*18
$GPGSV,3,2,12,06,08,102,35,16,38,057,40,07,42,256,40,27,35,257,30*7E
$PSMDCN,1*1A
$IIHDM,318,M*36
!AIVDM,1,1,,B,15N50UgP1bG?WJREa89LaOvN00Rk,0*2A
$PSMDCN,3*18
$GPGSV,3,3,12,20,41,172,43,03,09,118,32,04,13,286,00,08,08,243,00*72
$PSMDCN,2*19
$RARSD,,,,,,,,,0.350,181.6,1.500,N,H*5E
$PSMDCN,1*1A
$IIVHW,,T,318,M,08.86,N,16.37,K*6A
$PSMDCN,1*1A
$IIDBT,081.1,f,024.7,M,013.5,F*1F
$PSMDCN,2*19
$ECGGA,194410,3748.897,N,12226.936,W,1,06,2.0,-19.0,M,0.0,M,0.0,*40
$PSMDCN,1*1A
$IIVWR,085,L,23.3,N,11.9,M,043.1,K*49
$PSMDCN,1*1A
$IIMTW,016,C*3A
$PSMDCN,2*19
$ECGLL,3748.897,N,12226.936,W,194410,A,A*4A
$PSMDCN,2*19
$ECRMC,194410,A,3748.897,N,12226.936,W,8.8,326.0,140708,015.0,E,A*1F
$PSMDCN,2*19
$ECVTG,326.0,T,311.0,M,8.8,N,16.3,K,A*02
$PSMDCN,2*19
$ECZDA,194410,14,07,2008,,*58
$PSMDCN,3*18
$GPGSA,A,3,32,23,25,13,06,16,07,27,20,03,,,2.2,1.1,1.9*3D
!AIVDM,1,1,,B,15MwkRU01`G?H8LEaAU1mQJV00SC,0*63
$PSMDCN,3*18
$GPGSV,3,1,12,32,23,156,29,23,71,036,45,25,61,279,36,13,52,321,44*7E
!AIVDM,1,1,,A,15MvJw5P0?G?V8TEaDACbOvR00SB,0*76
!AIVDM,1,1,,B,15Mtu:0000o@05nE`?Chf08T00R>,0*74
$PSMDCN,3*18
$GPGSV,3,2,12,06,08,102,35,16,38,057,43,07,42,256,40,27,35,257,27*7B
!AIVDM,1,1,,A,15Mw0LPP3gG?Qn8EaQwEngvj0<0r,0*53
$PSMDCN,3*18
$GPGSV,3,3,12,20,41,172,43,03,09,118,34,04,13,286,00,08,08,243,00*74
$PSMDCN,1*1A
$IIHDM,318,M*36
$PSMDCN,1*1A
$IIVHW,,T,318,M,08.87,N,16.40,K*6B
$PSMDCN,1*1A
$IIDBT,081.1,f,024.7,M,013.5,F*1F
$PSMDCN,1*1A
$IIVWR,085,L,23.1,N,11.9,M,042.8,K*43
$PSMDCN,1*1A
$IIMTW,016,C*3A
$PSMDCN,3*18
$GPGSA,A,3,32,23,25,13,06,16,07,27,20,03,,,2.2,1.1,1.9*3D
$PSMDCN,3*18
$GPGSV,3,1,12,32,23,156,30,23,71,036,45,25,61,279,37,13,52,321,42*71
!AIVDM,1,1,,A,15Ms0FP01Fo?QbLEaj1kTRnT06Jh,0*5E
$PSMDCN,3*18
$GPGSV,3,2,12,06,08,102,38,16,38,057,43,07,42,256,40,27,35,257,29*78
$PSMDCN,1*1A
$IIHDM,318,M*36
$PSMDCN,3*18
$GPGSV,3,3,12,20,41,172,44,03,09,118,34,04,13,286,00,08,08,243,00*73
$PSMDCN,2*19
$RARSD,,,,,,,,,0.350,181.6,1.500,N,H*5E
$PSMDCN,1*1A
$IIVHW,,T,318,M,08.88,N,16.44,K*60
$PSMDCN,1*1A
$IIDBT,081.1,f,024.7,M,013.5,F*1F
$PSMDCN,2*19
$ECGGA,194410,3748.902,N,12226.939,W,1,06,2.0,-19.0,M,0.0,M,0.0,*42
$PSMDCN,1*1A
$IIVWR,082,L,23.3,N,12.0,M,043.2,K*47
$PSMDCN,1*1A
$IIMTW,016,C*3A
$PSMDCN,2*19
$ECGLL,3748.902,N,12226.939,W,194410,A,A*48
$PSMDCN,2*19
$ECRMC,194410,A,3748.902,N,12226.939,W,8.9,328.0,140708,015.0,E,A*12
$PSMDCN,2*19
$ECVTG,328.0,T,313.0,M,8.9,N,16.5,K,A*09
$PSMDCN,2*19
$ECZDA,194410,14,07,2008,,*58
$PSMDCN,3*18
$GPGSA,A,3,32,23,25,13,06,16,07,27,20,03,,,2.2,1.1,1.9*3D
!AIVDM,1,1,,B,15NE@2P002o?lOnEd961nAv`0<17,0*0B
$PSMDCN,3*18
$GPGSV,3,1,12,32,23,156,30,23,71,036,44,25,61,279,39,13,52,321,42*7E
$PSMDCN,3*18
$GPGSV,3,2,12,06,08,102,34,16,38,057,41,07,42,256,40,27,35,257,33*7D
$PSMDCN,1*1A
$IIHDM,316,M*38
$PSMDCN,3*18
$GPGSV,3,3,12,20,41,172,42,03,09,118,34,04,13,286,00,08,08,243,00*75
$PSMDCN,1*1A
$IIVHW,,T,316,M,08.86,N,16.44,K*60
$PSMDCN,1*1A
$IIDBT,081.1,f,024.7,M,013.5,F*1F
!AIVDM,1,1,,A,15N85<001io?HGhEaC81mQJb06Jh,0*6C
$PSMDCN,1*1A
$IIVWR,083,L,22.9,N,11.7,M,042.4,K*4E
$PSMDCN,1*1A
$IIMTW,016,C*3A
!AIVDM,1,1,,A,403OvkQuQoCdDo?UhDEf=L700<1F,0*3D
!AIVDM,1,1,,B,15NDS<PP05G?cJVE`R0FvOwL0<10,0*48
!AIVDM,1,1,,B,15MuU00P1<G?NLhE`g`kCgvV06Jh,0*6A
$PSMDCN,3*18
$GPGSA,A,3,32,23,25,13,06,16,07,27,20,03,,,2.2,1.1,1.9*3D
!AIVDM,1,1,,A,15Mw0BPP1vG?VivE`i`cqOv`0@<9,0*0E
$PSMDCN,3*18
$GPGSV,3,1,12,32,23,156,30,23,71,036,43,25,61,279,35,13,52,321,43*74
$PSMDCN,3*18
$GPGSV,3,2,12,06,08,102,35,16,38,057,40,07,42,256,39,27,35,257,32*72
$PSMDCN,1*1A
$IIHDM,316,M*38
$PSMDCN,3*18
$GPGSV,3,3,12,20,41,172,41,03,09,118,34,04,13,286,00,08,08,243,00*76
$PSMDCN,2*19
$RARSD,,,,,,,,,0.350,181.6,1.500,N,H*5E
$PSMDCN,1*1A
$IIVHW,,T,316,M,08.85,N,16.39,K*69
$PSMDCN,1*1A
$IIDBT,080.3,f,024.5,M,013.3,F*18
$PSMDCN,2*19
$ECGGA,194420,3748.904,N,12226.940,W,1,06,2.0,-19.0,M,0.0,M,0.0,*49
$PSMDCN,1*1A
$IIVWR,086,L,24.2,N,12.4,M,044.9,K*4D
$PSMDCN,1*1A
$IIMTW,016,C*3A
$PSMDCN,2*19
$ECGLL,3748.904,N,12226.940,W,194420,A,A*43
!AIVDM,1,1,,B,15N00t0P1?G?rAdEa9Cn`wv`0D11,0*1F
$PSMDCN,2*19
$ECRMC,194420,A,3748.904,N,12226.940,W,8.9,328.0,140708,015.0,E,A*19
$PSMDCN,2*19
$ECVTG,328.0,T,313.0,M,8.9,N,16.5,K,A*09
$PSMDCN,2*19
$ECZDA,194420,14,07,2008,,*5B
$PSMDCN,3*18
$GPGSA,A,3,32,23,25,13,06,16,07,27,20,03,,,2.2,1.1,1.9*3D
$PSMDCN,3*18
$GPGSV,3,1,12,32,23,156,28,23,71,036,44,25,61,279,31,13,52,321,44*79
!AIVDM,1,1,,B,15Mvld000WG?`mlEcA`6tmVb06Jh,0*54
$PSMDCN,3*18
$GPGSV,3,2,12,06,08,102,34,16,38,057,41,07,42,256,36,27,35,257,31*7E
!AIVDM,1,1,,A,15Mw0LPP3gG?QsNEaQ6Elgvr08AU,0*31
$PSMDCN,3*18
$GPGSV,3,3,12,20,41,172,35,03,09,118,34,04,13,286,00,08,08,243,00*75
$PSMDCN,1*1A
$IIHDM,315,M*3B
$PSMDCN,1*1A
$IIVHW,,T,315,M,08.84,N,16.37,K*65
$PSMDCN,1*1A
$IIDBT,080.3,f,024.5,M,013.3,F*18
$PSMDCN,1*1A
$IIVWR,084,L,23.6,N,12.1,M,043.7,K*40
$PSMDCN,1*1A
$IIMTW,016,C*3A
$PSMDCN,3*18
$GPGSA,A,3,32,23,25,13,06,16,07,27,20,03,,,2.2,1.1,1.9*3D
$PSMDCN,3*18
$GPGSV,3,1,12,32,23,156,28,23,71,036,43,25,61,279,30,13,52,321,45*7E
!AIVDM,1,1,,B,15MvV`0P02G?dC>E`SRHROvf00Sd,0*79
$PSMDCN,3*18
$GPGSV,3,2,12,06,08,102,34,16,38,057,41,07,42,256,36,27,35,257,28*76
$PSMDCN,1*1A
$IIHDM,312,M*3C
$PSMDCN,1*1A
$IIVHW,,T,312,M,08.84,N,16.37,K*62
$PSMDCN,3*18
$GPGSV,3,3,12,20,41,172,29,03,09,118,34,04,13,286,00,08,08,243,00*78
!AIVDM,1,1,,A,35MtnQ0P3tG?gE<E`CJ0gwvf00TA,0*6E
$PSMDCN,2*19
$RARSD,,,,,,,,,0.350,181.6,1.500,N,H*5E
$PSMDCN,1*1A
$IIDBT,080.3,f,024.5,M,013.3,F*18
$PSMDCN,1*1A
$IIVWR,081,L,23.0,N,11.8,M,042.6,K*49
$PSMDCN,2*19
$ECGGA,194420,3748.910,N,12226.946,W,1,06,2.0,-20.0,M,0.0,M,0.0,*40
$PSMDCN,1*1A
$IIMTW,016,C*3A
$PSMDCN,2*19
$ECGLL,3748.910,N,12226.946,W,194420,A,A*40
$PSMDCN,2*19
$ECRMC,194420,A,3748.910,N,12226.946,W,8.9,329.0,140708,015.0,E,A*1B
$PSMDCN,2*19
$ECVTG,329.0,T,314.0,M,8.9,N,16.5,K,A*0F
$PSMDCN,3*18
$GPGSA,A,3,32,23,25,13,06,16,07,27,20,03,,,2.2,1.1,1.9*3D
!AIVDM,1,1,,B,15Mvht5P15G?G1lE`vlCA?vf08=p,0*52
$PSMDCN,2*19
$ECZDA,194420,14,07,2008,,*5B
$PSMDCN,3*18
$GPGSV,3,1,12,32,23,156,30,23,71,036,45,25,61,279,30,13,52,321,46*72
$PSMDCN,3*18
$GPGSV,3,2,12,06,08,102,32,16,38,057,41,07,42,256,36,27,35,257,28*70
!AIVDM,1,1,,B,15Mw0LPP3gG?Qv>EaPb5iwvv06Jh,0*4B
$PSMDCN,1*1A
$IIHDM,310,M*3E
$PSMDCN,3*18
$GPGSV,3,3,12,20,41,172,28,03,09,118,33,04,13,286,00,08,08,243,00*7E
$PSMDCN,1*1A
$IIVHW,,T,310,M,08.86,N,16.40,K*62
$PSMDCN,1*1A
$IIDBT,080.3,f,024.5,M,013.3,F*18
$PSMDCN,1*1A
$IIVWR,080,L,23.3,N,12.0,M,043.2,K*45
$PSMDCN,1*1A
$IIMTW,016,C*3A
!AIVDM,1,1,,B,15Mv2JPP00G?hoBEWF2@0?vf0<1<,0*67
$PSMDCN,3*18
$GPGSA,A,3,32,23,25,13,06,16,07,27,20,03,,,2.2,1.1,1.9*3D
$PSMDCN,3*18
$GPGSV,3,1,12,32,23,156,30,23,71,036,44,25,61,279,31,13,52,321,45*71
!AIVDM,1,1,,B,15N:A<?P01G?egFE`CH@4wvj28>V,0*29
!AIVDM,1,1,,B,35MtnQ0P47G?gG8E`Ct@jOvj00WA,0*5B
$PSMDCN,3*18
$GPGSV,3,2,12,06,08,102,31,16,38,057,43,07,42,256,36,27,35,257,34*7C
$PSMDCN,1*1A
$IIHDM,311,M*3F
$PSMDCN,2*19
$RARSD,,,,,,,,,0.350,181.6,1.500,N,H*5E
$PSMDCN,3*18
$GPGSV,3,3,12,20,41,172,29,03,09,118,31,04,13,286,00,08,08,243,00*7D
!AIVDM,1,1,,B,403Ovk1uQoCdHo>jPHEdjdW008>g,0*6F
$PSMDCN,1*1A
$IIVHW,,T,311,M,08.88,N,16.40,K*6D
!AIVDM,1,1,,B,15Mue30P00G?<irEeVBbQOwN0<0U,0*68
$PSMDCN,1*1A
$IIDBT,079.3,f,024.1,M,013.2,F*1B
$PSMDCN,2*19
$ECGGA,194420,3748.914,N,12226.949,W,1,06,2.0,-20.0,M,0.0,M,0.0,*4B
$PSMDCN,1*1A
$IIVWR,079,L,24.1,N,12.4,M,044.7,K*40
$PSMDCN,1*1A
$IIMTW,016,C*3A
$PSMDCN,2*19
$ECGLL,3748.914,N,12226.949,W,194420,A,A*4B
!AIVDM,1,1,,A,35OqO05001G@8FNEWEnoL?vh0000,0*69
$PSMDCN,2*19
$ECRMC,194420,A,3748.914,N,12226.949,W,8.9,328.0,140708,015.0,E,A*11
$PSMDCN,2*19
$ECVTG,328.0,T,313.0,M,8.9,N,16.5,K,A*09
$PSMDCN,2*19
